{
  "des moines|ia": {
    "city": "Des Moines",
    "state": "IA",
    "lat": 41.5903,
    "lng": -93.6277,
    "competitor_count": 20,
    "competitors": [
      {
        "place_id": "ChIJNfGs5m-a7ocRqpNFUDDk9jM",
        "name": "Thrasher Foundation Repair",
        "lat": 41.6282654,
        "lng": -93.75398369999999,
        "rating": 4.8,
        "user_ratings_total": 1528,
        "address": "9850 Douglas Ave Suite 100, Urbandale, IA 50322, USA",
        "types": [
          "establishment",
          "general_contractor",
          "point_of_interest"
        ],
        "business_status": "OPERATIONAL"
      },
      {
        "place_id": "ChIJo63o4eeP7ocR3L3vwapwm10",
        "name": "Foundation Recovery Systems",
        "lat": 41.7057169,
        "lng": -93.5682472,
        "rating": 4.8,
        "user_ratings_total": 541,
        "address": "2401 SE Creekview Dr, Ankeny, IA 50021, USA",
        "types": [
          "establishment",
          "general_contractor",
          "point_of_interest"
        ],
        "business_status": "OPERATIONAL"
      },
      {
        "place_id": "ChIJu8Y-LCqj7ocRscIz2-nDpqI",
        "name": "911 Restoration of Des Moines",
        "lat": 41.4941132,
        "lng": -93.48796709999999,
        "rating": 4.9,
        "user_ratings_total": 362,
        "address": "550 S 2nd St, Des Moines, IA 50047, USA",
        "types": [
          "establishment",
          "general_contractor",
          "point_of_interest"
        ],
        "business_status": "OPERATIONAL"
      },
      {
        "place_id": "ChIJQXtAFMqb7ocRwkouc4WsTMU",
        "name": "BAM Basements and Masons of Des Moines",
        "lat": 41.657052,
        "lng": -93.61928859999999,
        "rating": 5,
        "user_ratings_total": 255,
        "address": "5327 NW 2nd St, Des Moines, IA 50313, USA",
        "types": [
          "establishment",
          "general_contractor",
          "point_of_interest"
        ],
        "business_status": "OPERATIONAL"
      },
      {
        "place_id": "ChIJIx609ycN7IcRGRn1V77m-Mo",
        "name": "Anchored Walls, Inc.",
        "lat": 41.3299808,
        "lng": -94.0586113,
        "rating": 4.9,
        "user_ratings_total": 239,
        "address": "1962 IA-92, Winterset, IA 50273, USA",
        "types": [
          "establishment",
          "general_contractor",
          "point_of_interest"
        ],
        "business_status": "OPERATIONAL"
      },
      {
        "place_id": "ChIJ79M-3-1da4gR-OEiqBoqtpU",
        "name": "Indiana Crawl Space Repair",
        "lat": 39.4492435,
        "lng": -86.4265404,
        "rating": 4.9,
        "user_ratings_total": 209,
        "address": "1759 N, Blue Bluff Rd, Martinsville, IN 46151, USA",
        "types": [
          "establishment",
          "general_contractor",
          "point_of_interest"
        ],
        "business_status": "OPERATIONAL"
      },
      {
        "place_id": "ChIJpU0-0K6a7ocRu5X8Fqb5NMI",
        "name": "B.A.M! Basements and Masons",
        "lat": 41.6979329,
        "lng": -93.587176,
        "rating": 4.9,
        "user_ratings_total": 107,
        "address": "7535 NE 19th St, Ankeny, IA 50021, USA",
        "types": [
          "establishment",
          "general_contractor",
          "point_of_interest"
        ],
        "business_status": "OPERATIONAL"
      },
      {
        "place_id": "ChIJKyrFbjMT7ocRboLU7qnULhM",
        "name": "Acculevel",
        "lat": 42.1827566,
        "lng": -93.5635511,
        "rating": 4.8,
        "user_ratings_total": 104,
        "address": "1811 Rich Olive St, Story City, IA 50248, USA",
        "types": [
          "establishment",
          "general_contractor",
          "point_of_interest"
        ],
        "business_status": "OPERATIONAL"
      },
      {
        "place_id": "ChIJAZZbEus57YcRSSdm8iZ2hKw",
        "name": "WCI Basement Repair",
        "lat": 42.0699429,
        "lng": -94.8737738,
        "rating": 4.8,
        "user_ratings_total": 86,
        "address": "602 W 8th St, Carroll, IA 51401, USA",
        "types": [
          "establishment",
          "general_contractor",
          "point_of_interest"
        ],
        "business_status": "OPERATIONAL"
      },
      {
        "place_id": "ChIJWc_fPVKf7ocRutvUx8eKJlE",
        "name": "Epp Foundation Repair",
        "lat": 41.6131707,
        "lng": -93.7353426,
        "rating": 4.9,
        "user_ratings_total": 78,
        "address": "2175 NW 86th St Suite 14C, Clive, IA 50325, USA",
        "types": [
          "establishment",
          "general_contractor",
          "point_of_interest"
        ],
        "business_status": "OPERATIONAL"
      },
      {
        "place_id": "ChIJ-yrTL_uZ7ocRT2RBFSbyQDs",
        "name": "Jon's Dry Basement Foundation Repair",
        "lat": 41.53321500000001,
        "lng": -93.5955761,
        "rating": 4.7,
        "user_ratings_total": 68,
        "address": "1410 E Diehl Ave, Des Moines, IA 50320, USA",
        "types": [
          "establishment",
          "general_contractor",
          "point_of_interest"
        ],
        "business_status": "OPERATIONAL"
      },
      {
        "place_id": "ChIJyyrVGro57IcR8PSrZeNb2eM",
        "name": "All Basements and More of Adel",
        "lat": 41.6121532,
        "lng": -94.0254666,
        "rating": 5,
        "user_ratings_total": 51,
        "address": "1315 Pleasant St, Adel, IA 50003, USA",
        "types": [
          "establishment",
          "general_contractor",
          "point_of_interest"
        ],
        "business_status": "OPERATIONAL"
      },
      {
        "place_id": "ChIJi1QDvs2j7ocR8nDLj1NhjBc",
        "name": "Concrete PolyFix",
        "lat": 41.5603999,
        "lng": -93.7840751,
        "rating": 4.7,
        "user_ratings_total": 47,
        "address": "650 S Prairie View Dr #125, West Des Moines, IA 50266, USA",
        "types": [
          "establishment",
          "general_contractor",
          "point_of_interest"
        ],
        "business_status": "OPERATIONAL"
      },
      {
        "place_id": "ChIJ7eF3r0wM7IcRKGffw4HDy-A",
        "name": "Iowa Foundation Repair",
        "lat": 41.34241240000001,
        "lng": -94.0146341,
        "rating": 4.9,
        "user_ratings_total": 38,
        "address": "Winterset, IA 50273, USA",
        "types": [
          "establishment",
          "point_of_interest"
        ],
        "business_status": "OPERATIONAL"
      },
      {
        "place_id": "ChIJi6fgP5-F7ocR9vLdiPI1-NY",
        "name": "A-1 Basement Finishing",
        "lat": 41.7075031,
        "lng": -93.632685,
        "rating": 5,
        "user_ratings_total": 38,
        "address": "2123 SW Cascade Falls Dr, Ankeny, IA 50023, USA",
        "types": [
          "establishment",
          "general_contractor",
          "point_of_interest"
        ],
        "business_status": "OPERATIONAL"
      },
      {
        "place_id": "ChIJiY7QxVOZ7ocRlPf_jRtDY8Q",
        "name": "JLB Basement Waterproofing & Foundation Repair LLC",
        "lat": 41.6024852,
        "lng": -93.6180449,
        "rating": 4.6,
        "user_ratings_total": 32,
        "address": "97 Indiana Ave Suite #1, Des Moines, IA 50314, USA",
        "types": [
          "establishment",
          "general_contractor",
          "point_of_interest"
        ],
        "business_status": "OPERATIONAL"
      },
      {
        "place_id": "ChIJIeqQrcA97IcRd4_OxTJeGqM",
        "name": "JLB Basement Waterproofing & Foundation Repair LLC",
        "lat": 41.534167,
        "lng": -93.9561786,
        "rating": 4.8,
        "user_ratings_total": 31,
        "address": "325 Grand St, Van Meter, IA 50261, USA",
        "types": [
          "establishment",
          "general_contractor",
          "point_of_interest"
        ],
        "business_status": "OPERATIONAL"
      },
      {
        "place_id": "ChIJiUUPXLHPZWIRsoRaxtHUpQI",
        "name": "GLC Construction LLC",
        "lat": 41.6145383,
        "lng": -93.57988519999999,
        "rating": 5,
        "user_ratings_total": 31,
        "address": "2219 E 21st St, Des Moines, IA 50317, USA",
        "types": [
          "establishment",
          "general_contractor",
          "point_of_interest"
        ],
        "business_status": "OPERATIONAL"
      },
      {
        "place_id": "ChIJvZ4ecfBRa4gR8ZWhVAgz4ao",
        "name": "The Hawkeye State Foundation Repair Co",
        "lat": 41.6656897,
        "lng": -93.4742543,
        "rating": 4,
        "user_ratings_total": 24,
        "address": "1000 Commerce Pkwy SW, Bondurant, IA 50035, USA",
        "types": [
          "establishment",
          "general_contractor",
          "point_of_interest"
        ],
        "business_status": "OPERATIONAL"
      },
      {
        "place_id": "ChIJk4hdN9VR4W0R2jDjh6IymAY",
        "name": "Dry Duck Basement Waterproofing",
        "lat": 41.5843417,
        "lng": -93.5580038,
        "rating": 5,
        "user_ratings_total": 21,
        "address": "3000 Scott Ave, Des Moines, IA 50317, USA",
        "types": [
          "establishment",
          "point_of_interest"
        ],
        "business_status": "OPERATIONAL"
      }
    ]
  },
  "bettendorf|ia": {
    "city": "Bettendorf",
    "state": "IA",
    "lat": 41.566,
    "lng": -90.4666,
    "competitor_count": 20,
    "competitors": [
      {
        "place_id": "ChIJ5U6SOLvO44cRP_O-OLv_LNE",
        "name": "MidAmerica Basement Systems",
        "lat": 41.5005218,
        "lng": -90.6397374,
        "rating": 4.6,
        "user_ratings_total": 653,
        "address": "4525 Buckeye St, Davenport, IA 52802, USA",
        "types": [
          "establishment",
          "general_contractor",
          "point_of_interest"
        ],
        "business_status": "OPERATIONAL"
      },
      {
        "place_id": "ChIJ2Vj9WdqgD4gRKsUTRL9w1F0",
        "name": "Real Seal Basement Waterproofing & Foundation Repair",
        "lat": 42.003419,
        "lng": -88.0944433,
        "rating": 4.9,
        "user_ratings_total": 610,
        "address": "570 Estes Ave, Schaumburg, IL 60193, USA",
        "types": [
          "establishment",
          "general_contractor",
          "point_of_interest"
        ],
        "business_status": "OPERATIONAL"
      },
      {
        "place_id": "ChIJ171obznfCIgRbOKKFnZMmKI",
        "name": "Acculevel",
        "lat": 41.9241929,
        "lng": -89.0616241,
        "rating": 4.9,
        "user_ratings_total": 443,
        "address": "115 5th Ave, Rochelle, IL 61068, USA",
        "types": [
          "establishment",
          "general_contractor",
          "point_of_interest"
        ],
        "business_status": "OPERATIONAL"
      },
      {
        "place_id": "ChIJ3xcrG-_N44cRbIsnyFMHlVM",
        "name": "Helitech Waterproofing & Foundation Repair",
        "lat": 41.4402382,
        "lng": -90.6296701,
        "rating": 4.9,
        "user_ratings_total": 439,
        "address": "4301 81st Ave W, Rock Island, IL 61201, USA",
        "types": [
          "establishment",
          "general_contractor",
          "point_of_interest"
        ],
        "business_status": "OPERATIONAL"
      },
      {
        "place_id": "ChIJFZAA9mWvdIgR3riaqtyQXBs",
        "name": "Foundation Recovery Systems",
        "lat": 40.4195936,
        "lng": -88.9848447,
        "rating": 4.8,
        "user_ratings_total": 268,
        "address": "14678 E 925 North Rd Building 5, Bloomington, IL 61705, USA",
        "types": [
          "establishment",
          "general_contractor",
          "point_of_interest"
        ],
        "business_status": "OPERATIONAL"
      },
      {
        "place_id": "ChIJ79M-3-1da4gR-OEiqBoqtpU",
        "name": "Indiana Crawl Space Repair",
        "lat": 39.4492435,
        "lng": -86.4265404,
        "rating": 4.9,
        "user_ratings_total": 209,
        "address": "1759 N, Blue Bluff Rd, Martinsville, IN 46151, USA",
        "types": [
          "establishment",
          "general_contractor",
          "point_of_interest"
        ],
        "business_status": "OPERATIONAL"
      },
      {
        "place_id": "ChIJ4RYnDm8x4ocRDtZj__NoVXo",
        "name": "ACE Waterproofing & Basement Solutions",
        "lat": 41.5286116,
        "lng": -90.48512869999999,
        "rating": 4.9,
        "user_ratings_total": 164,
        "address": "3466 State St, Bettendorf, IA 52722, USA",
        "types": [
          "establishment",
          "general_contractor",
          "point_of_interest",
          "store"
        ],
        "business_status": "OPERATIONAL"
      },
      {
        "place_id": "ChIJmaKGhhPL44cR5lgka5WPGXw",
        "name": "Tomlinson Cannon",
        "lat": 41.59397999999999,
        "lng": -90.61025699999999,
        "rating": 5,
        "user_ratings_total": 161,
        "address": "7205 Hancock Ct Unit 2A, Davenport, IA 52806, USA",
        "types": [
          "establishment",
          "point_of_interest"
        ],
        "business_status": "OPERATIONAL"
      },
      {
        "place_id": "ChIJPY3xwqrX5ocREHZ8miWYnO0",
        "name": "Thrasher Foundation Repair",
        "lat": 40.6467734,
        "lng": -91.2941247,
        "rating": 4.9,
        "user_ratings_total": 115,
        "address": "2140 330th Ave, Fort Madison, IA 52627, USA",
        "types": [
          "establishment",
          "general_contractor",
          "point_of_interest"
        ],
        "business_status": "OPERATIONAL"
      },
      {
        "place_id": "ChIJyZxqS28-DogRYuPw2tpotsA",
        "name": "American Basements and Crawlspaces Corp.",
        "lat": 41.6087243,
        "lng": -87.7907706,
        "rating": 4.6,
        "user_ratings_total": 111,
        "address": "15527 S 70th Ct, Orland Park, IL 60462, USA",
        "types": [
          "establishment",
          "point_of_interest"
        ],
        "business_status": "OPERATIONAL"
      },
      {
        "place_id": "ChIJoYcLESnEiWoRFEhJ551-97M",
        "name": "Blumer Restoration",
        "lat": 41.534982,
        "lng": -90.6051355,
        "rating": 4.9,
        "user_ratings_total": 104,
        "address": "1908 W 15th St, Davenport, IA 52804, USA",
        "types": [
          "establishment",
          "general_contractor",
          "point_of_interest"
        ],
        "business_status": "OPERATIONAL"
      },
      {
        "place_id": "ChIJxVlx9m074ocRpkB2dIWygls",
        "name": "QCFI Concrete and Masonry",
        "lat": 41.47311819999999,
        "lng": -90.49041860000001,
        "rating": 5,
        "user_ratings_total": 96,
        "address": "3810 34th St, Moline, IL 61265, USA",
        "types": [
          "establishment",
          "general_contractor",
          "point_of_interest",
          "store"
        ],
        "business_status": "OPERATIONAL"
      },
      {
        "place_id": "ChIJK4qY4Bkx4ocR7rDV21-42zE",
        "name": "Absolutely Dry Basement Waterproofing, Inc.",
        "lat": 41.4998322,
        "lng": -90.6397623,
        "rating": 4.8,
        "user_ratings_total": 64,
        "address": "1922 S Stark St, Davenport, IA 52802, USA",
        "types": [
          "establishment",
          "point_of_interest"
        ],
        "business_status": "OPERATIONAL"
      },
      {
        "place_id": "ChIJSSg9q8wrDIgRvhZeQXxD3Zs",
        "name": "Basement and Crawl Space Solutions",
        "lat": 41.2785876,
        "lng": -88.2281235,
        "rating": 5,
        "user_ratings_total": 63,
        "address": "942 N Division St, Braidwood, IL 60408, USA",
        "types": [
          "establishment",
          "general_contractor",
          "point_of_interest"
        ],
        "business_status": "OPERATIONAL"
      },
      {
        "place_id": "ChIJbfRjiP034ocRAKjh5D2UKIY",
        "name": "Foundation Recovery Systems",
        "lat": 41.5476292,
        "lng": -90.5215003,
        "rating": 4.8,
        "user_ratings_total": 59,
        "address": "2435 Kimberly Rd Suite 45, Bettendorf, IA 52722, USA",
        "types": [
          "establishment",
          "general_contractor",
          "point_of_interest"
        ],
        "business_status": "OPERATIONAL"
      },
      {
        "place_id": "ChIJu4k8TENLDogRqP7qwAFwyJY",
        "name": "Crawlspaces.com",
        "lat": 41.8853011,
        "lng": -87.9237321,
        "rating": 5,
        "user_ratings_total": 53,
        "address": "502 Stratford Ave, Elmhurst, IL 60126, USA",
        "types": [
          "establishment",
          "general_contractor",
          "point_of_interest"
        ],
        "business_status": "OPERATIONAL"
      },
      {
        "place_id": "ChIJzWulyo735IcRAh7x42C7oOs",
        "name": "Foundation Recovery Systems",
        "lat": 41.94245,
        "lng": -91.6712572,
        "rating": 4.7,
        "user_ratings_total": 49,
        "address": "3349 Southgate Ct SW Suite 110, Cedar Rapids, IA 52404, USA",
        "types": [
          "establishment",
          "general_contractor",
          "point_of_interest"
        ],
        "business_status": "OPERATIONAL"
      },
      {
        "place_id": "ChIJz_d4OKc04ocRWBtWau_vWoQ",
        "name": "Behncke Construction Inc.",
        "lat": 41.5213676,
        "lng": -90.6025975,
        "rating": 5,
        "user_ratings_total": 47,
        "address": "1738 W 2nd St, Davenport, IA 52802, USA",
        "types": [
          "establishment",
          "general_contractor",
          "point_of_interest"
        ],
        "business_status": "OPERATIONAL"
      },
      {
        "place_id": "ChIJkZdSuQkx4ocRvNArgqDN60Y",
        "name": "Midwest Mudjacking Service",
        "lat": 41.4817741,
        "lng": -90.50077449999999,
        "rating": 4.9,
        "user_ratings_total": 43,
        "address": "3004 26th St, Moline, IL 61265, USA",
        "types": [
          "establishment",
          "general_contractor",
          "point_of_interest"
        ],
        "business_status": "OPERATIONAL"
      },
      {
        "place_id": "ChIJBXPkAIIz4ocRFBlWeBRVNMc",
        "name": "TSR Concrete Coatings",
        "lat": 41.480426,
        "lng": -90.59115000000001,
        "rating": 4.9,
        "user_ratings_total": 42,
        "address": "510 30th Ave, Rock Island, IL 61201, USA",
        "types": [
          "establishment",
          "general_contractor",
          "point_of_interest"
        ],
        "business_status": "OPERATIONAL"
      }
    ]
  },
  "sioux|ia": {
    "city": "Sioux",
    "state": "IA",
    "lat": 42.5118,
    "lng": -96.3931,
    "competitor_count": 20,
    "competitors": [
      {
        "place_id": "ChIJRQfVmG8U9YgRN_km60MezZo",
        "name": "AquaGuard Foundation Solutions",
        "lat": 33.9721997,
        "lng": -84.5281044,
        "rating": 4.8,
        "user_ratings_total": 3186,
        "address": "875 Pickens Industrial Dr N E, Marietta, GA 30062, USA",
        "types": [
          "establishment",
          "general_contractor",
          "point_of_interest"
        ],
        "business_status": "OPERATIONAL"
      },
      {
        "place_id": "ChIJO_LLxxmzJIgRy6b-dP61Xwo",
        "name": "Foundation Systems of Michigan",
        "lat": 42.3814488,
        "lng": -83.36856720000002,
        "rating": 4.7,
        "user_ratings_total": 2568,
        "address": "32985 Schoolcraft, Livonia, MI 48150, USA",
        "types": [
          "establishment",
          "general_contractor",
          "point_of_interest"
        ],
        "business_status": "OPERATIONAL"
      },
      {
        "place_id": "ChIJCy4lesv0k4cRZJFlSm2N4pc",
        "name": "Thrasher Foundation Repair",
        "lat": 41.1671164,
        "lng": -96.09795749999999,
        "rating": 4.8,
        "user_ratings_total": 2111,
        "address": "11844 Valley Ridge Dr, Papillion, NE 68046, USA",
        "types": [
          "establishment",
          "general_contractor",
          "point_of_interest"
        ],
        "business_status": "OPERATIONAL"
      },
      {
        "place_id": "ChIJh2oUBmZoa4gRjXm2tckXT-Q",
        "name": "Indiana Foundation Service",
        "lat": 39.5605751,
        "lng": -86.0814747,
        "rating": 4.6,
        "user_ratings_total": 1783,
        "address": "624 N Front St, Whiteland, IN 46184, USA",
        "types": [
          "establishment",
          "general_contractor",
          "point_of_interest"
        ],
        "business_status": "OPERATIONAL"
      },
      {
        "place_id": "ChIJNfGs5m-a7ocRqpNFUDDk9jM",
        "name": "Thrasher Foundation Repair",
        "lat": 41.6282654,
        "lng": -93.75398369999999,
        "rating": 4.8,
        "user_ratings_total": 1528,
        "address": "9850 Douglas Ave Suite 100, Urbandale, IA 50322, USA",
        "types": [
          "establishment",
          "general_contractor",
          "point_of_interest"
        ],
        "business_status": "OPERATIONAL"
      },
      {
        "place_id": "ChIJE1n0supah4cRbhzw7WJaHwU",
        "name": "Blackburn Foundation Repair",
        "lat": 43.60650709999999,
        "lng": -96.94954,
        "rating": 4.9,
        "user_ratings_total": 865,
        "address": "26071 Brower Cir, Hartford, SD 57033, USA",
        "types": [
          "establishment",
          "general_contractor",
          "point_of_interest"
        ],
        "business_status": "OPERATIONAL"
      },
      {
        "place_id": "ChIJYSECSoL1k4cRFfHX67E8D7E",
        "name": "Groundworks",
        "lat": 41.1829001,
        "lng": -96.13014,
        "rating": 4.8,
        "user_ratings_total": 864,
        "address": "13831 Chalco Valley Pkwy Suite 100, Omaha, NE 68138, USA",
        "types": [
          "establishment",
          "general_contractor",
          "point_of_interest"
        ],
        "business_status": "OPERATIONAL"
      },
      {
        "place_id": "ChIJm9llH0H_jYcRpPmlNTWhksM",
        "name": "Thrasher Foundation Repair",
        "lat": 42.414027,
        "lng": -96.36185549999999,
        "rating": 4.9,
        "user_ratings_total": 379,
        "address": "1120 S Lewis Blvd, Sergeant Bluff, IA 51054, USA",
        "types": [
          "establishment",
          "general_contractor",
          "point_of_interest"
        ],
        "business_status": "OPERATIONAL"
      },
      {
        "place_id": "ChIJv98tqbHzk4cRZqZZU1ZxXxA",
        "name": "Epp Foundation Repair",
        "lat": 41.23455,
        "lng": -96.1051907,
        "rating": 4.9,
        "user_ratings_total": 360,
        "address": "12305 Gold St Ste 2, Omaha, NE 68144, USA",
        "types": [
          "establishment",
          "general_contractor",
          "point_of_interest"
        ],
        "business_status": "OPERATIONAL"
      },
      {
        "place_id": "ChIJ62IxEgm2jocRJj94-dsO6Nw",
        "name": "Crew Restoration & Construction Inc.",
        "lat": 43.5129812,
        "lng": -96.73558159999999,
        "rating": 4.8,
        "user_ratings_total": 341,
        "address": "3503 S Norton Ave, Sioux Falls, SD 57105, USA",
        "types": [
          "establishment",
          "general_contractor",
          "point_of_interest"
        ],
        "business_status": "OPERATIONAL"
      },
      {
        "place_id": "ChIJIxiXFlip62ERZ80LuVGfFgY",
        "name": "Healthy Home Foundation Repair",
        "lat": 39.7065352,
        "lng": -86.0763267,
        "rating": 5,
        "user_ratings_total": 241,
        "address": "5342 Elmwood Ave Bld 3, Ste F, Indianapolis, IN 46203, USA",
        "types": [
          "establishment",
          "general_contractor",
          "point_of_interest"
        ],
        "business_status": "OPERATIONAL"
      },
      {
        "place_id": "ChIJ79M-3-1da4gR-OEiqBoqtpU",
        "name": "Indiana Crawl Space Repair",
        "lat": 39.4492435,
        "lng": -86.4265404,
        "rating": 4.9,
        "user_ratings_total": 209,
        "address": "1759 N, Blue Bluff Rd, Martinsville, IN 46151, USA",
        "types": [
          "establishment",
          "general_contractor",
          "point_of_interest"
        ],
        "business_status": "OPERATIONAL"
      },
      {
        "place_id": "ChIJOyk2MVYpU4gRQvQvIaZSIM0",
        "name": "Carolina Foundation Solutions, LLC",
        "lat": 36.06307,
        "lng": -79.47041999999999,
        "rating": 4.7,
        "user_ratings_total": 200,
        "address": "2771 Alamance Rd, Burlington, NC 27215, USA",
        "types": [
          "establishment",
          "general_contractor",
          "point_of_interest"
        ],
        "business_status": "OPERATIONAL"
      },
      {
        "place_id": "ChIJH2cvAoqKk4cRF_eyHLYsl-c",
        "name": "Quality Foundation Repair, Inc.",
        "lat": 41.2165041,
        "lng": -96.0535724,
        "rating": 4.9,
        "user_ratings_total": 98,
        "address": "4350 S 90th St, Omaha, NE 68127, USA",
        "types": [
          "establishment",
          "general_contractor",
          "point_of_interest"
        ],
        "business_status": "OPERATIONAL"
      },
      {
        "place_id": "ChIJAZZbEus57YcRSSdm8iZ2hKw",
        "name": "WCI Basement Repair",
        "lat": 42.0699429,
        "lng": -94.8737738,
        "rating": 4.8,
        "user_ratings_total": 86,
        "address": "602 W 8th St, Carroll, IA 51401, USA",
        "types": [
          "establishment",
          "general_contractor",
          "point_of_interest"
        ],
        "business_status": "OPERATIONAL"
      },
      {
        "place_id": "ChIJIxW2an37mYcR6xIcDjCkpw8",
        "name": "CNW Foundation Repair",
        "lat": 41.2024907,
        "lng": -95.9761734,
        "rating": 4.9,
        "user_ratings_total": 71,
        "address": "4133 T St, Omaha, NE 68107, USA",
        "types": [
          "establishment",
          "point_of_interest"
        ],
        "business_status": "OPERATIONAL"
      },
      {
        "place_id": "ChIJo70pBQAHjocRjsk4MGYGxJ8",
        "name": "Groundworks",
        "lat": 42.4976111,
        "lng": -96.4046125,
        "rating": 4.9,
        "user_ratings_total": 65,
        "address": "507 7th St Suite 228-29, Sioux City, IA 51101, USA",
        "types": [
          "establishment",
          "general_contractor",
          "point_of_interest"
        ],
        "business_status": "OPERATIONAL"
      },
      {
        "place_id": "ChIJeSuvudfvk4cRlHi69It0Njk",
        "name": "BDB Waterproofing, Inc.",
        "lat": 41.2748375,
        "lng": -96.2335591,
        "rating": 4.7,
        "user_ratings_total": 57,
        "address": "1714 N 203rd St, Elkhorn, NE 68022, USA",
        "types": [
          "establishment",
          "point_of_interest"
        ],
        "business_status": "OPERATIONAL"
      },
      {
        "place_id": "ChIJrdD5IZgdE4gRo-5_xLandGw",
        "name": "Crawlspace Remediation LLC",
        "lat": 40.3822893,
        "lng": -86.851342,
        "rating": 4.7,
        "user_ratings_total": 55,
        "address": "3524 Brady Ln Ste A, Lafayette, IN 47909, USA",
        "types": [
          "establishment",
          "point_of_interest"
        ],
        "business_status": "OPERATIONAL"
      },
      {
        "place_id": "ChIJp6o6QUXxk4cRpU6w7vJaeIw",
        "name": "All Hands Waterproofing",
        "lat": 41.2079062,
        "lng": -96.15645909999999,
        "rating": 4.6,
        "user_ratings_total": 52,
        "address": "15418 Weir St Ste 134, Omaha, NE 68137, USA",
        "types": [
          "establishment",
          "general_contractor",
          "point_of_interest"
        ],
        "business_status": "OPERATIONAL"
      }
    ]
  },
  "davenport|ia": {
    "city": "Davenport",
    "state": "IA",
    "lat": 41.5483,
    "lng": -90.5978,
    "competitor_count": 20,
    "competitors": [
      {
        "place_id": "ChIJO_LLxxmzJIgRy6b-dP61Xwo",
        "name": "Foundation Systems of Michigan",
        "lat": 42.3814488,
        "lng": -83.36856720000002,
        "rating": 4.7,
        "user_ratings_total": 2568,
        "address": "32985 Schoolcraft, Livonia, MI 48150, USA",
        "types": [
          "establishment",
          "general_contractor",
          "point_of_interest"
        ],
        "business_status": "OPERATIONAL"
      },
      {
        "place_id": "ChIJ5U6SOLvO44cRP_O-OLv_LNE",
        "name": "MidAmerica Basement Systems",
        "lat": 41.5005218,
        "lng": -90.6397374,
        "rating": 4.6,
        "user_ratings_total": 653,
        "address": "4525 Buckeye St, Davenport, IA 52802, USA",
        "types": [
          "establishment",
          "general_contractor",
          "point_of_interest"
        ],
        "business_status": "OPERATIONAL"
      },
      {
        "place_id": "ChIJ171obznfCIgRbOKKFnZMmKI",
        "name": "Acculevel",
        "lat": 41.9241929,
        "lng": -89.0616241,
        "rating": 4.9,
        "user_ratings_total": 443,
        "address": "115 5th Ave, Rochelle, IL 61068, USA",
        "types": [
          "establishment",
          "general_contractor",
          "point_of_interest"
        ],
        "business_status": "OPERATIONAL"
      },
      {
        "place_id": "ChIJ3xcrG-_N44cRbIsnyFMHlVM",
        "name": "Helitech Waterproofing & Foundation Repair",
        "lat": 41.4402382,
        "lng": -90.6296701,
        "rating": 4.9,
        "user_ratings_total": 439,
        "address": "4301 81st Ave W, Rock Island, IL 61201, USA",
        "types": [
          "establishment",
          "general_contractor",
          "point_of_interest"
        ],
        "business_status": "OPERATIONAL"
      },
      {
        "place_id": "ChIJHfdUz4f1CogRMKwc9apr2fI",
        "name": "Force Basement Solutions",
        "lat": 40.5760583,
        "lng": -89.6484296,
        "rating": 4.9,
        "user_ratings_total": 339,
        "address": "711 N 2nd St B, Pekin, IL 61554, USA",
        "types": [
          "establishment",
          "general_contractor",
          "point_of_interest"
        ],
        "business_status": "OPERATIONAL"
      },
      {
        "place_id": "ChIJ79M-3-1da4gR-OEiqBoqtpU",
        "name": "Indiana Crawl Space Repair",
        "lat": 39.4492435,
        "lng": -86.4265404,
        "rating": 4.9,
        "user_ratings_total": 209,
        "address": "1759 N, Blue Bluff Rd, Martinsville, IN 46151, USA",
        "types": [
          "establishment",
          "general_contractor",
          "point_of_interest"
        ],
        "business_status": "OPERATIONAL"
      },
      {
        "place_id": "ChIJOyk2MVYpU4gRQvQvIaZSIM0",
        "name": "Carolina Foundation Solutions, LLC",
        "lat": 36.06307,
        "lng": -79.47041999999999,
        "rating": 4.7,
        "user_ratings_total": 200,
        "address": "2771 Alamance Rd, Burlington, NC 27215, USA",
        "types": [
          "establishment",
          "general_contractor",
          "point_of_interest"
        ],
        "business_status": "OPERATIONAL"
      },
      {
        "place_id": "ChIJ4RYnDm8x4ocRDtZj__NoVXo",
        "name": "ACE Waterproofing & Basement Solutions",
        "lat": 41.5286116,
        "lng": -90.48512869999999,
        "rating": 4.9,
        "user_ratings_total": 164,
        "address": "3466 State St, Bettendorf, IA 52722, USA",
        "types": [
          "establishment",
          "general_contractor",
          "point_of_interest",
          "store"
        ],
        "business_status": "OPERATIONAL"
      },
      {
        "place_id": "ChIJmaKGhhPL44cR5lgka5WPGXw",
        "name": "Tomlinson Cannon",
        "lat": 41.59397999999999,
        "lng": -90.61025699999999,
        "rating": 5,
        "user_ratings_total": 161,
        "address": "7205 Hancock Ct Unit 2A, Davenport, IA 52806, USA",
        "types": [
          "establishment",
          "point_of_interest"
        ],
        "business_status": "OPERATIONAL"
      },
      {
        "place_id": "ChIJPY3xwqrX5ocREHZ8miWYnO0",
        "name": "Thrasher Foundation Repair",
        "lat": 40.6467734,
        "lng": -91.2941247,
        "rating": 4.9,
        "user_ratings_total": 115,
        "address": "2140 330th Ave, Fort Madison, IA 52627, USA",
        "types": [
          "establishment",
          "general_contractor",
          "point_of_interest"
        ],
        "business_status": "OPERATIONAL"
      },
      {
        "place_id": "ChIJoYcLESnEiWoRFEhJ551-97M",
        "name": "Blumer Restoration",
        "lat": 41.534982,
        "lng": -90.6051355,
        "rating": 4.9,
        "user_ratings_total": 104,
        "address": "1908 W 15th St, Davenport, IA 52804, USA",
        "types": [
          "establishment",
          "general_contractor",
          "point_of_interest"
        ],
        "business_status": "OPERATIONAL"
      },
      {
        "place_id": "ChIJxVlx9m074ocRpkB2dIWygls",
        "name": "QCFI Concrete and Masonry",
        "lat": 41.47311819999999,
        "lng": -90.49041860000001,
        "rating": 5,
        "user_ratings_total": 96,
        "address": "3810 34th St, Moline, IL 61265, USA",
        "types": [
          "establishment",
          "general_contractor",
          "point_of_interest",
          "store"
        ],
        "business_status": "OPERATIONAL"
      },
      {
        "place_id": "ChIJK4qY4Bkx4ocR7rDV21-42zE",
        "name": "Absolutely Dry Basement Waterproofing, Inc.",
        "lat": 41.4998322,
        "lng": -90.6397623,
        "rating": 4.8,
        "user_ratings_total": 64,
        "address": "1922 S Stark St, Davenport, IA 52802, USA",
        "types": [
          "establishment",
          "point_of_interest"
        ],
        "business_status": "OPERATIONAL"
      },
      {
        "place_id": "ChIJbfRjiP034ocRAKjh5D2UKIY",
        "name": "Foundation Recovery Systems",
        "lat": 41.5476292,
        "lng": -90.5215003,
        "rating": 4.8,
        "user_ratings_total": 59,
        "address": "2435 Kimberly Rd Suite 45, Bettendorf, IA 52722, USA",
        "types": [
          "establishment",
          "general_contractor",
          "point_of_interest"
        ],
        "business_status": "OPERATIONAL"
      },
      {
        "place_id": "ChIJu4k8TENLDogRqP7qwAFwyJY",
        "name": "Crawlspaces.com",
        "lat": 41.8853011,
        "lng": -87.9237321,
        "rating": 5,
        "user_ratings_total": 53,
        "address": "502 Stratford Ave, Elmhurst, IL 60126, USA",
        "types": [
          "establishment",
          "general_contractor",
          "point_of_interest"
        ],
        "business_status": "OPERATIONAL"
      },
      {
        "place_id": "ChIJzWulyo735IcRAh7x42C7oOs",
        "name": "Foundation Recovery Systems",
        "lat": 41.94245,
        "lng": -91.6712572,
        "rating": 4.7,
        "user_ratings_total": 49,
        "address": "3349 Southgate Ct SW Suite 110, Cedar Rapids, IA 52404, USA",
        "types": [
          "establishment",
          "general_contractor",
          "point_of_interest"
        ],
        "business_status": "OPERATIONAL"
      },
      {
        "place_id": "ChIJz_d4OKc04ocRWBtWau_vWoQ",
        "name": "Behncke Construction Inc.",
        "lat": 41.5213676,
        "lng": -90.6025975,
        "rating": 5,
        "user_ratings_total": 47,
        "address": "1738 W 2nd St, Davenport, IA 52802, USA",
        "types": [
          "establishment",
          "general_contractor",
          "point_of_interest"
        ],
        "business_status": "OPERATIONAL"
      },
      {
        "place_id": "ChIJkZdSuQkx4ocRvNArgqDN60Y",
        "name": "Midwest Mudjacking Service",
        "lat": 41.4817741,
        "lng": -90.50077449999999,
        "rating": 4.9,
        "user_ratings_total": 43,
        "address": "3004 26th St, Moline, IL 61265, USA",
        "types": [
          "establishment",
          "general_contractor",
          "point_of_interest"
        ],
        "business_status": "OPERATIONAL"
      },
      {
        "place_id": "ChIJBXPkAIIz4ocRFBlWeBRVNMc",
        "name": "TSR Concrete Coatings",
        "lat": 41.480426,
        "lng": -90.59115000000001,
        "rating": 4.9,
        "user_ratings_total": 42,
        "address": "510 30th Ave, Rock Island, IL 61201, USA",
        "types": [
          "establishment",
          "general_contractor",
          "point_of_interest"
        ],
        "business_status": "OPERATIONAL"
      },
      {
        "place_id": "ChIJhyzdd0BdCogR5mkOF4-jqNM",
        "name": "Thrasher Foundation Repair",
        "lat": 40.7962511,
        "lng": -89.6266151,
        "rating": 4.8,
        "user_ratings_total": 38,
        "address": "8910 N Industrial Rd, Peoria, IL 61615, USA",
        "types": [
          "establishment",
          "general_contractor",
          "point_of_interest"
        ],
        "business_status": "OPERATIONAL"
      }
    ]
  },
  "cedar rapids|ia": {
    "city": "Cedar Rapids",
    "state": "IA",
    "lat": 41.9882,
    "lng": -91.6778,
    "competitor_count": 20,
    "competitors": [
      {
        "place_id": "ChIJO_LLxxmzJIgRy6b-dP61Xwo",
        "name": "Foundation Systems of Michigan",
        "lat": 42.3814488,
        "lng": -83.36856720000002,
        "rating": 4.7,
        "user_ratings_total": 2568,
        "address": "32985 Schoolcraft, Livonia, MI 48150, USA",
        "types": [
          "establishment",
          "general_contractor",
          "point_of_interest"
        ],
        "business_status": "OPERATIONAL"
      },
      {
        "place_id": "ChIJNfGs5m-a7ocRqpNFUDDk9jM",
        "name": "Thrasher Foundation Repair",
        "lat": 41.6282654,
        "lng": -93.75398369999999,
        "rating": 4.8,
        "user_ratings_total": 1528,
        "address": "9850 Douglas Ave Suite 100, Urbandale, IA 50322, USA",
        "types": [
          "establishment",
          "general_contractor",
          "point_of_interest"
        ],
        "business_status": "OPERATIONAL"
      },
      {
        "place_id": "ChIJ-1dM4zpp5IcRwgbVSorD-Qo",
        "name": "Tomlinson-Cannon",
        "lat": 41.674573,
        "lng": -91.4554821,
        "rating": 4.9,
        "user_ratings_total": 676,
        "address": "3466 Dolphin Dr SE, Iowa City, IA 52240, USA",
        "types": [
          "establishment",
          "general_contractor",
          "point_of_interest",
          "roofing_contractor"
        ],
        "business_status": "OPERATIONAL"
      },
      {
        "place_id": "ChIJ5U6SOLvO44cRP_O-OLv_LNE",
        "name": "MidAmerica Basement Systems",
        "lat": 41.5005218,
        "lng": -90.6397374,
        "rating": 4.6,
        "user_ratings_total": 653,
        "address": "4525 Buckeye St, Davenport, IA 52802, USA",
        "types": [
          "establishment",
          "general_contractor",
          "point_of_interest"
        ],
        "business_status": "OPERATIONAL"
      },
      {
        "place_id": "ChIJo63o4eeP7ocR3L3vwapwm10",
        "name": "Foundation Recovery Systems",
        "lat": 41.7057169,
        "lng": -93.5682472,
        "rating": 4.8,
        "user_ratings_total": 541,
        "address": "2401 SE Creekview Dr, Ankeny, IA 50021, USA",
        "types": [
          "establishment",
          "general_contractor",
          "point_of_interest"
        ],
        "business_status": "OPERATIONAL"
      },
      {
        "place_id": "ChIJ3xcrG-_N44cRbIsnyFMHlVM",
        "name": "Helitech Waterproofing & Foundation Repair",
        "lat": 41.4402382,
        "lng": -90.6296701,
        "rating": 4.9,
        "user_ratings_total": 439,
        "address": "4301 81st Ave W, Rock Island, IL 61201, USA",
        "types": [
          "establishment",
          "general_contractor",
          "point_of_interest"
        ],
        "business_status": "OPERATIONAL"
      },
      {
        "place_id": "ChIJ79M-3-1da4gR-OEiqBoqtpU",
        "name": "Indiana Crawl Space Repair",
        "lat": 39.4492435,
        "lng": -86.4265404,
        "rating": 4.9,
        "user_ratings_total": 209,
        "address": "1759 N, Blue Bluff Rd, Martinsville, IN 46151, USA",
        "types": [
          "establishment",
          "general_contractor",
          "point_of_interest"
        ],
        "business_status": "OPERATIONAL"
      },
      {
        "place_id": "ChIJf3KzhKL55IcR_K3LKNRp4Lg",
        "name": "Cutter Construction",
        "lat": 41.9662066,
        "lng": -91.7070457,
        "rating": 4.8,
        "user_ratings_total": 175,
        "address": "1049 Juniper Dr SW, Cedar Rapids, IA 52404, USA",
        "types": [
          "establishment",
          "general_contractor",
          "point_of_interest"
        ],
        "business_status": "OPERATIONAL"
      },
      {
        "place_id": "ChIJ3f7XnHf75IcRr3AfLM8WYaw",
        "name": "Tomlinson-Cannon",
        "lat": 42.0335332,
        "lng": -91.67804389999999,
        "rating": 5,
        "user_ratings_total": 166,
        "address": "2351 Blairs Ferry Rd NE #4, Cedar Rapids, IA 52402, USA",
        "types": [
          "establishment",
          "general_contractor",
          "point_of_interest"
        ],
        "business_status": "OPERATIONAL"
      },
      {
        "place_id": "ChIJ4RYnDm8x4ocRDtZj__NoVXo",
        "name": "ACE Waterproofing & Basement Solutions",
        "lat": 41.5286116,
        "lng": -90.48512869999999,
        "rating": 4.9,
        "user_ratings_total": 164,
        "address": "3466 State St, Bettendorf, IA 52722, USA",
        "types": [
          "establishment",
          "general_contractor",
          "point_of_interest",
          "store"
        ],
        "business_status": "OPERATIONAL"
      },
      {
        "place_id": "ChIJlzMRZvhokQ4RUEEcgiDlELg",
        "name": "Joseph's LLC",
        "lat": 41.69078340000001,
        "lng": -91.5956806,
        "rating": 5,
        "user_ratings_total": 134,
        "address": "2251 14th St, Coralville, IA 52241, USA",
        "types": [
          "establishment",
          "general_contractor",
          "point_of_interest"
        ],
        "business_status": "OPERATIONAL"
      },
      {
        "place_id": "ChIJPY3xwqrX5ocREHZ8miWYnO0",
        "name": "Thrasher Foundation Repair",
        "lat": 40.6467734,
        "lng": -91.2941247,
        "rating": 4.9,
        "user_ratings_total": 115,
        "address": "2140 330th Ave, Fort Madison, IA 52627, USA",
        "types": [
          "establishment",
          "general_contractor",
          "point_of_interest"
        ],
        "business_status": "OPERATIONAL"
      },
      {
        "place_id": "ChIJM3hB9En35IcRh5yphvaQzCM",
        "name": "T&T Home Improvement",
        "lat": 41.9780931,
        "lng": -91.6446129,
        "rating": 4.9,
        "user_ratings_total": 92,
        "address": "1745 Higley Ave SE, Cedar Rapids, IA 52403, USA",
        "types": [
          "establishment",
          "general_contractor",
          "point_of_interest"
        ],
        "business_status": "OPERATIONAL"
      },
      {
        "place_id": "ChIJ018DKqT75IcRJSb4UnsFc-8",
        "name": "911 Restoration of Cedar Rapids",
        "lat": 41.91400429999999,
        "lng": -91.65715349999999,
        "rating": 4.9,
        "user_ratings_total": 86,
        "address": "6600 Kirkwood Blvd SW Suite 300, Cedar Rapids, IA 52404, USA",
        "types": [
          "establishment",
          "general_contractor",
          "point_of_interest"
        ],
        "business_status": "OPERATIONAL"
      },
      {
        "place_id": "ChIJ44Kpjc0YIwwRid4NH_FUi6I",
        "name": "True North Restoration of Iowa",
        "lat": 42.4814108,
        "lng": -92.44809219999999,
        "rating": 4.9,
        "user_ratings_total": 76,
        "address": "6227 Nordic Dr, Cedar Falls, IA 50613, USA",
        "types": [
          "establishment",
          "general_contractor",
          "laundry",
          "point_of_interest"
        ],
        "business_status": "OPERATIONAL"
      },
      {
        "place_id": "ChIJ-yrTL_uZ7ocRT2RBFSbyQDs",
        "name": "Jon's Dry Basement Foundation Repair",
        "lat": 41.53321500000001,
        "lng": -93.5955761,
        "rating": 4.7,
        "user_ratings_total": 68,
        "address": "1410 E Diehl Ave, Des Moines, IA 50320, USA",
        "types": [
          "establishment",
          "general_contractor",
          "point_of_interest"
        ],
        "business_status": "OPERATIONAL"
      },
      {
        "place_id": "ChIJK4qY4Bkx4ocR7rDV21-42zE",
        "name": "Absolutely Dry Basement Waterproofing, Inc.",
        "lat": 41.4998322,
        "lng": -90.6397623,
        "rating": 4.8,
        "user_ratings_total": 64,
        "address": "1922 S Stark St, Davenport, IA 52802, USA",
        "types": [
          "establishment",
          "point_of_interest"
        ],
        "business_status": "OPERATIONAL"
      },
      {
        "place_id": "ChIJbfRjiP034ocRAKjh5D2UKIY",
        "name": "Foundation Recovery Systems",
        "lat": 41.5476292,
        "lng": -90.5215003,
        "rating": 4.8,
        "user_ratings_total": 59,
        "address": "2435 Kimberly Rd Suite 45, Bettendorf, IA 52722, USA",
        "types": [
          "establishment",
          "general_contractor",
          "point_of_interest"
        ],
        "business_status": "OPERATIONAL"
      },
      {
        "place_id": "ChIJu4k8TENLDogRqP7qwAFwyJY",
        "name": "Crawlspaces.com",
        "lat": 41.8853011,
        "lng": -87.9237321,
        "rating": 5,
        "user_ratings_total": 53,
        "address": "502 Stratford Ave, Elmhurst, IL 60126, USA",
        "types": [
          "establishment",
          "general_contractor",
          "point_of_interest"
        ],
        "business_status": "OPERATIONAL"
      },
      {
        "place_id": "ChIJzWulyo735IcRAh7x42C7oOs",
        "name": "Foundation Recovery Systems",
        "lat": 41.94245,
        "lng": -91.6712572,
        "rating": 4.7,
        "user_ratings_total": 49,
        "address": "3349 Southgate Ct SW Suite 110, Cedar Rapids, IA 52404, USA",
        "types": [
          "establishment",
          "general_contractor",
          "point_of_interest"
        ],
        "business_status": "OPERATIONAL"
      }
    ]
  },
  "ankeny|ia": {
    "city": "Ankeny",
    "state": "IA",
    "lat": 41.7263,
    "lng": -93.5996,
    "competitor_count": 20,
    "competitors": [
      {
        "place_id": "ChIJNfGs5m-a7ocRqpNFUDDk9jM",
        "name": "Thrasher Foundation Repair",
        "lat": 41.6282654,
        "lng": -93.75398369999999,
        "rating": 4.8,
        "user_ratings_total": 1528,
        "address": "9850 Douglas Ave Suite 100, Urbandale, IA 50322, USA",
        "types": [
          "establishment",
          "general_contractor",
          "point_of_interest"
        ],
        "business_status": "OPERATIONAL"
      },
      {
        "place_id": "ChIJo63o4eeP7ocR3L3vwapwm10",
        "name": "Foundation Recovery Systems",
        "lat": 41.7057169,
        "lng": -93.5682472,
        "rating": 4.8,
        "user_ratings_total": 541,
        "address": "2401 SE Creekview Dr, Ankeny, IA 50021, USA",
        "types": [
          "establishment",
          "general_contractor",
          "point_of_interest"
        ],
        "business_status": "OPERATIONAL"
      },
      {
        "place_id": "ChIJu8Y-LCqj7ocRscIz2-nDpqI",
        "name": "911 Restoration of Des Moines",
        "lat": 41.4941132,
        "lng": -93.48796709999999,
        "rating": 4.9,
        "user_ratings_total": 362,
        "address": "550 S 2nd St, Des Moines, IA 50047, USA",
        "types": [
          "establishment",
          "general_contractor",
          "point_of_interest"
        ],
        "business_status": "OPERATIONAL"
      },
      {
        "place_id": "ChIJQXtAFMqb7ocRwkouc4WsTMU",
        "name": "BAM Basements and Masons of Des Moines",
        "lat": 41.657052,
        "lng": -93.61928859999999,
        "rating": 5,
        "user_ratings_total": 255,
        "address": "5327 NW 2nd St, Des Moines, IA 50313, USA",
        "types": [
          "establishment",
          "general_contractor",
          "point_of_interest"
        ],
        "business_status": "OPERATIONAL"
      },
      {
        "place_id": "ChIJIx609ycN7IcRGRn1V77m-Mo",
        "name": "Anchored Walls, Inc.",
        "lat": 41.3299808,
        "lng": -94.0586113,
        "rating": 4.9,
        "user_ratings_total": 239,
        "address": "1962 IA-92, Winterset, IA 50273, USA",
        "types": [
          "establishment",
          "general_contractor",
          "point_of_interest"
        ],
        "business_status": "OPERATIONAL"
      },
      {
        "place_id": "ChIJ79M-3-1da4gR-OEiqBoqtpU",
        "name": "Indiana Crawl Space Repair",
        "lat": 39.4492435,
        "lng": -86.4265404,
        "rating": 4.9,
        "user_ratings_total": 209,
        "address": "1759 N, Blue Bluff Rd, Martinsville, IN 46151, USA",
        "types": [
          "establishment",
          "general_contractor",
          "point_of_interest"
        ],
        "business_status": "OPERATIONAL"
      },
      {
        "place_id": "ChIJpU0-0K6a7ocRu5X8Fqb5NMI",
        "name": "B.A.M! Basements and Masons",
        "lat": 41.6979329,
        "lng": -93.587176,
        "rating": 4.9,
        "user_ratings_total": 107,
        "address": "7535 NE 19th St, Ankeny, IA 50021, USA",
        "types": [
          "establishment",
          "general_contractor",
          "point_of_interest"
        ],
        "business_status": "OPERATIONAL"
      },
      {
        "place_id": "ChIJKyrFbjMT7ocRboLU7qnULhM",
        "name": "Acculevel",
        "lat": 42.1827566,
        "lng": -93.5635511,
        "rating": 4.8,
        "user_ratings_total": 104,
        "address": "1811 Rich Olive St, Story City, IA 50248, USA",
        "types": [
          "establishment",
          "general_contractor",
          "point_of_interest"
        ],
        "business_status": "OPERATIONAL"
      },
      {
        "place_id": "ChIJAZZbEus57YcRSSdm8iZ2hKw",
        "name": "WCI Basement Repair",
        "lat": 42.0699429,
        "lng": -94.8737738,
        "rating": 4.8,
        "user_ratings_total": 86,
        "address": "602 W 8th St, Carroll, IA 51401, USA",
        "types": [
          "establishment",
          "general_contractor",
          "point_of_interest"
        ],
        "business_status": "OPERATIONAL"
      },
      {
        "place_id": "ChIJWc_fPVKf7ocRutvUx8eKJlE",
        "name": "Epp Foundation Repair",
        "lat": 41.6131707,
        "lng": -93.7353426,
        "rating": 4.9,
        "user_ratings_total": 78,
        "address": "2175 NW 86th St Suite 14C, Clive, IA 50325, USA",
        "types": [
          "establishment",
          "general_contractor",
          "point_of_interest"
        ],
        "business_status": "OPERATIONAL"
      },
      {
        "place_id": "ChIJ-yrTL_uZ7ocRT2RBFSbyQDs",
        "name": "Jon's Dry Basement Foundation Repair",
        "lat": 41.53321500000001,
        "lng": -93.5955761,
        "rating": 4.7,
        "user_ratings_total": 68,
        "address": "1410 E Diehl Ave, Des Moines, IA 50320, USA",
        "types": [
          "establishment",
          "general_contractor",
          "point_of_interest"
        ],
        "business_status": "OPERATIONAL"
      },
      {
        "place_id": "ChIJyyrVGro57IcR8PSrZeNb2eM",
        "name": "All Basements and More of Adel",
        "lat": 41.6121532,
        "lng": -94.0254666,
        "rating": 5,
        "user_ratings_total": 51,
        "address": "1315 Pleasant St, Adel, IA 50003, USA",
        "types": [
          "establishment",
          "general_contractor",
          "point_of_interest"
        ],
        "business_status": "OPERATIONAL"
      },
      {
        "place_id": "ChIJi1QDvs2j7ocR8nDLj1NhjBc",
        "name": "Concrete PolyFix",
        "lat": 41.5603999,
        "lng": -93.7840751,
        "rating": 4.7,
        "user_ratings_total": 47,
        "address": "650 S Prairie View Dr #125, West Des Moines, IA 50266, USA",
        "types": [
          "establishment",
          "general_contractor",
          "point_of_interest"
        ],
        "business_status": "OPERATIONAL"
      },
      {
        "place_id": "ChIJ7eF3r0wM7IcRKGffw4HDy-A",
        "name": "Iowa Foundation Repair",
        "lat": 41.34241240000001,
        "lng": -94.0146341,
        "rating": 4.9,
        "user_ratings_total": 38,
        "address": "Winterset, IA 50273, USA",
        "types": [
          "establishment",
          "point_of_interest"
        ],
        "business_status": "OPERATIONAL"
      },
      {
        "place_id": "ChIJi6fgP5-F7ocR9vLdiPI1-NY",
        "name": "A-1 Basement Finishing",
        "lat": 41.7075031,
        "lng": -93.632685,
        "rating": 5,
        "user_ratings_total": 38,
        "address": "2123 SW Cascade Falls Dr, Ankeny, IA 50023, USA",
        "types": [
          "establishment",
          "general_contractor",
          "point_of_interest"
        ],
        "business_status": "OPERATIONAL"
      },
      {
        "place_id": "ChIJiY7QxVOZ7ocRlPf_jRtDY8Q",
        "name": "JLB Basement Waterproofing & Foundation Repair LLC",
        "lat": 41.6024852,
        "lng": -93.6180449,
        "rating": 4.6,
        "user_ratings_total": 32,
        "address": "97 Indiana Ave Suite #1, Des Moines, IA 50314, USA",
        "types": [
          "establishment",
          "general_contractor",
          "point_of_interest"
        ],
        "business_status": "OPERATIONAL"
      },
      {
        "place_id": "ChIJIeqQrcA97IcRd4_OxTJeGqM",
        "name": "JLB Basement Waterproofing & Foundation Repair LLC",
        "lat": 41.534167,
        "lng": -93.9561786,
        "rating": 4.8,
        "user_ratings_total": 31,
        "address": "325 Grand St, Van Meter, IA 50261, USA",
        "types": [
          "establishment",
          "general_contractor",
          "point_of_interest"
        ],
        "business_status": "OPERATIONAL"
      },
      {
        "place_id": "ChIJvZ4ecfBRa4gR8ZWhVAgz4ao",
        "name": "The Hawkeye State Foundation Repair Co",
        "lat": 41.6656897,
        "lng": -93.4742543,
        "rating": 4,
        "user_ratings_total": 24,
        "address": "1000 Commerce Pkwy SW, Bondurant, IA 50035, USA",
        "types": [
          "establishment",
          "general_contractor",
          "point_of_interest"
        ],
        "business_status": "OPERATIONAL"
      },
      {
        "place_id": "ChIJk4hdN9VR4W0R2jDjh6IymAY",
        "name": "Dry Duck Basement Waterproofing",
        "lat": 41.5843417,
        "lng": -93.5580038,
        "rating": 5,
        "user_ratings_total": 21,
        "address": "3000 Scott Ave, Des Moines, IA 50317, USA",
        "types": [
          "establishment",
          "point_of_interest"
        ],
        "business_status": "OPERATIONAL"
      },
      {
        "place_id": "ChIJs5UlcvTb7YcRGBUc1HKERUc",
        "name": "JLB Basement Waterproofing & Foundation Repair LLC",
        "lat": 42.0593355,
        "lng": -93.858516,
        "rating": 5,
        "user_ratings_total": 19,
        "address": "2041 Knezevich Rd, Boone, IA 50036, USA",
        "types": [
          "establishment",
          "general_contractor",
          "point_of_interest"
        ],
        "business_status": "OPERATIONAL"
      }
    ]
  },
  "council bluffs|ia": {
    "city": "Council Bluffs",
    "state": "IA",
    "lat": 41.23,
    "lng": -95.8283,
    "competitor_count": 20,
    "competitors": [
      {
        "place_id": "ChIJO_LLxxmzJIgRy6b-dP61Xwo",
        "name": "Foundation Systems of Michigan",
        "lat": 42.3814488,
        "lng": -83.36856720000002,
        "rating": 4.7,
        "user_ratings_total": 2568,
        "address": "32985 Schoolcraft, Livonia, MI 48150, USA",
        "types": [
          "establishment",
          "general_contractor",
          "point_of_interest"
        ],
        "business_status": "OPERATIONAL"
      },
      {
        "place_id": "ChIJCy4lesv0k4cRZJFlSm2N4pc",
        "name": "Thrasher Foundation Repair",
        "lat": 41.1671164,
        "lng": -96.09795749999999,
        "rating": 4.8,
        "user_ratings_total": 2111,
        "address": "11844 Valley Ridge Dr, Papillion, NE 68046, USA",
        "types": [
          "establishment",
          "general_contractor",
          "point_of_interest"
        ],
        "business_status": "OPERATIONAL"
      },
      {
        "place_id": "ChIJNfGs5m-a7ocRqpNFUDDk9jM",
        "name": "Thrasher Foundation Repair",
        "lat": 41.6282654,
        "lng": -93.75398369999999,
        "rating": 4.8,
        "user_ratings_total": 1528,
        "address": "9850 Douglas Ave Suite 100, Urbandale, IA 50322, USA",
        "types": [
          "establishment",
          "general_contractor",
          "point_of_interest"
        ],
        "business_status": "OPERATIONAL"
      },
      {
        "place_id": "ChIJb3r-c8m_locRrA822UwX-7I",
        "name": "Epp Foundation Repair",
        "lat": 40.7342697,
        "lng": -96.70492639999999,
        "rating": 4.9,
        "user_ratings_total": 1028,
        "address": "1133 Libra Dr, Lincoln, NE 68512, USA",
        "types": [
          "establishment",
          "general_contractor",
          "point_of_interest"
        ],
        "business_status": "OPERATIONAL"
      },
      {
        "place_id": "ChIJYSECSoL1k4cRFfHX67E8D7E",
        "name": "Groundworks",
        "lat": 41.1829001,
        "lng": -96.13014,
        "rating": 4.8,
        "user_ratings_total": 864,
        "address": "13831 Chalco Valley Pkwy Suite 100, Omaha, NE 68138, USA",
        "types": [
          "establishment",
          "general_contractor",
          "point_of_interest"
        ],
        "business_status": "OPERATIONAL"
      },
      {
        "place_id": "ChIJm9llH0H_jYcRpPmlNTWhksM",
        "name": "Thrasher Foundation Repair",
        "lat": 42.414027,
        "lng": -96.36185549999999,
        "rating": 4.9,
        "user_ratings_total": 379,
        "address": "1120 S Lewis Blvd, Sergeant Bluff, IA 51054, USA",
        "types": [
          "establishment",
          "general_contractor",
          "point_of_interest"
        ],
        "business_status": "OPERATIONAL"
      },
      {
        "place_id": "ChIJv98tqbHzk4cRZqZZU1ZxXxA",
        "name": "Epp Foundation Repair",
        "lat": 41.23455,
        "lng": -96.1051907,
        "rating": 4.9,
        "user_ratings_total": 360,
        "address": "12305 Gold St Ste 2, Omaha, NE 68144, USA",
        "types": [
          "establishment",
          "general_contractor",
          "point_of_interest"
        ],
        "business_status": "OPERATIONAL"
      },
      {
        "place_id": "ChIJjXSD1DWrwYcRNUDgD8heatg",
        "name": "Smart Foundation Repair and Basement Waterproofing",
        "lat": 39.0223102,
        "lng": -94.4679603,
        "rating": 4.8,
        "user_ratings_total": 344,
        "address": "5520 Raytown Rd, Raytown, MO 64133, USA",
        "types": [
          "establishment",
          "general_contractor",
          "point_of_interest"
        ],
        "business_status": "OPERATIONAL"
      },
      {
        "place_id": "ChIJ7zSlKGbvk4cRZch7N2ZREpk",
        "name": "EverLevel Concrete Repair",
        "lat": 41.2746888,
        "lng": -96.2335753,
        "rating": 5,
        "user_ratings_total": 325,
        "address": "1710 N 203rd St, Elkhorn, NE 68022, USA",
        "types": [
          "establishment",
          "general_contractor",
          "point_of_interest"
        ],
        "business_status": "OPERATIONAL"
      },
      {
        "place_id": "ChIJA1lOUuKNk4cR3SOZhovLqT8",
        "name": "Koala Insulation of Omaha",
        "lat": 41.0910036,
        "lng": -96.2581354,
        "rating": 4.9,
        "user_ratings_total": 253,
        "address": "21880 Platteview Rd Suite 148, Gretna, NE 68028, USA",
        "types": [
          "establishment",
          "general_contractor",
          "point_of_interest"
        ],
        "business_status": "OPERATIONAL"
      },
      {
        "place_id": "ChIJf7uFLseJk4cRMoyP3NAGIxU",
        "name": "Radiant Eagle LLC",
        "lat": 41.123858,
        "lng": -95.8930517,
        "rating": 5,
        "user_ratings_total": 236,
        "address": "103 E 34th Ave, Bellevue, NE 68005, USA",
        "types": [
          "establishment",
          "general_contractor",
          "point_of_interest"
        ],
        "business_status": "OPERATIONAL"
      },
      {
        "place_id": "ChIJ79M-3-1da4gR-OEiqBoqtpU",
        "name": "Indiana Crawl Space Repair",
        "lat": 39.4492435,
        "lng": -86.4265404,
        "rating": 4.9,
        "user_ratings_total": 209,
        "address": "1759 N, Blue Bluff Rd, Martinsville, IN 46151, USA",
        "types": [
          "establishment",
          "general_contractor",
          "point_of_interest"
        ],
        "business_status": "OPERATIONAL"
      },
      {
        "place_id": "ChIJt_h4uNTsk4cRHrREjxcsy58",
        "name": "SERVPRO of Omaha Northwest",
        "lat": 41.3397781,
        "lng": -96.076743,
        "rating": 4.9,
        "user_ratings_total": 179,
        "address": "10512 Bondesson Cir, Omaha, NE 68122, USA",
        "types": [
          "establishment",
          "general_contractor",
          "health",
          "laundry",
          "point_of_interest"
        ],
        "business_status": "OPERATIONAL"
      },
      {
        "place_id": "ChIJ58FHwPrwk4cRCkJhGf4mWUU",
        "name": "AdvantaClean of Omaha",
        "lat": 41.222084,
        "lng": -96.1259718,
        "rating": 4.9,
        "user_ratings_total": 108,
        "address": "13605 C St, Omaha, NE 68144, USA",
        "types": [
          "establishment",
          "general_contractor",
          "point_of_interest"
        ],
        "business_status": "OPERATIONAL"
      },
      {
        "place_id": "ChIJm56icCy_locRBu1x2lUROfE",
        "name": "Groundworks",
        "lat": 40.8111799,
        "lng": -96.7048981,
        "rating": 4.9,
        "user_ratings_total": 100,
        "address": "233 S 13th St, Lincoln, NE 68501, USA",
        "types": [
          "establishment",
          "general_contractor",
          "point_of_interest"
        ],
        "business_status": "OPERATIONAL"
      },
      {
        "place_id": "ChIJH2cvAoqKk4cRF_eyHLYsl-c",
        "name": "Quality Foundation Repair, Inc.",
        "lat": 41.2165041,
        "lng": -96.0535724,
        "rating": 4.9,
        "user_ratings_total": 98,
        "address": "4350 S 90th St, Omaha, NE 68127, USA",
        "types": [
          "establishment",
          "general_contractor",
          "point_of_interest"
        ],
        "business_status": "OPERATIONAL"
      },
      {
        "place_id": "ChIJAZZbEus57YcRSSdm8iZ2hKw",
        "name": "WCI Basement Repair",
        "lat": 42.0699429,
        "lng": -94.8737738,
        "rating": 4.8,
        "user_ratings_total": 86,
        "address": "602 W 8th St, Carroll, IA 51401, USA",
        "types": [
          "establishment",
          "general_contractor",
          "point_of_interest"
        ],
        "business_status": "OPERATIONAL"
      },
      {
        "place_id": "ChIJIxW2an37mYcR6xIcDjCkpw8",
        "name": "CNW Foundation Repair",
        "lat": 41.2024907,
        "lng": -95.9761734,
        "rating": 4.9,
        "user_ratings_total": 71,
        "address": "4133 T St, Omaha, NE 68107, USA",
        "types": [
          "establishment",
          "point_of_interest"
        ],
        "business_status": "OPERATIONAL"
      },
      {
        "place_id": "ChIJqwv-BW6-locRvuBXVEeYSMw",
        "name": "The Leak Detective",
        "lat": 40.819992,
        "lng": -96.65441,
        "rating": 4.9,
        "user_ratings_total": 71,
        "address": "701 N 48th St #203, Lincoln, NE 68504, USA",
        "types": [
          "establishment",
          "point_of_interest"
        ],
        "business_status": "OPERATIONAL"
      },
      {
        "place_id": "ChIJQYdEHD6Nk4cRa5FSo7LdE2g",
        "name": "Revival Caulking & Restoration, Inc.",
        "lat": 41.2069147,
        "lng": -96.0426006,
        "rating": 4.9,
        "user_ratings_total": 68,
        "address": "5105 S 84th St, Ralston, NE 68127, USA",
        "types": [
          "establishment",
          "general_contractor",
          "point_of_interest"
        ],
        "business_status": "OPERATIONAL"
      }
    ]
  },
  "dubuque|ia": {
    "city": "Dubuque",
    "state": "IA",
    "lat": 42.5014,
    "lng": -90.7141,
    "competitor_count": 20,
    "competitors": [
      {
        "place_id": "ChIJO_LLxxmzJIgRy6b-dP61Xwo",
        "name": "Foundation Systems of Michigan",
        "lat": 42.3814488,
        "lng": -83.36856720000002,
        "rating": 4.7,
        "user_ratings_total": 2568,
        "address": "32985 Schoolcraft, Livonia, MI 48150, USA",
        "types": [
          "establishment",
          "general_contractor",
          "point_of_interest"
        ],
        "business_status": "OPERATIONAL"
      },
      {
        "place_id": "ChIJNfGs5m-a7ocRqpNFUDDk9jM",
        "name": "Thrasher Foundation Repair",
        "lat": 41.6282654,
        "lng": -93.75398369999999,
        "rating": 4.8,
        "user_ratings_total": 1528,
        "address": "9850 Douglas Ave Suite 100, Urbandale, IA 50322, USA",
        "types": [
          "establishment",
          "general_contractor",
          "point_of_interest"
        ],
        "business_status": "OPERATIONAL"
      },
      {
        "place_id": "ChIJ5U6SOLvO44cRP_O-OLv_LNE",
        "name": "MidAmerica Basement Systems",
        "lat": 41.5005218,
        "lng": -90.6397374,
        "rating": 4.6,
        "user_ratings_total": 653,
        "address": "4525 Buckeye St, Davenport, IA 52802, USA",
        "types": [
          "establishment",
          "general_contractor",
          "point_of_interest"
        ],
        "business_status": "OPERATIONAL"
      },
      {
        "place_id": "ChIJo63o4eeP7ocR3L3vwapwm10",
        "name": "Foundation Recovery Systems",
        "lat": 41.7057169,
        "lng": -93.5682472,
        "rating": 4.8,
        "user_ratings_total": 541,
        "address": "2401 SE Creekview Dr, Ankeny, IA 50021, USA",
        "types": [
          "establishment",
          "general_contractor",
          "point_of_interest"
        ],
        "business_status": "OPERATIONAL"
      },
      {
        "place_id": "ChIJ171obznfCIgRbOKKFnZMmKI",
        "name": "Acculevel",
        "lat": 41.9241929,
        "lng": -89.0616241,
        "rating": 4.9,
        "user_ratings_total": 443,
        "address": "115 5th Ave, Rochelle, IL 61068, USA",
        "types": [
          "establishment",
          "general_contractor",
          "point_of_interest"
        ],
        "business_status": "OPERATIONAL"
      },
      {
        "place_id": "ChIJ3xcrG-_N44cRbIsnyFMHlVM",
        "name": "Helitech Waterproofing & Foundation Repair",
        "lat": 41.4402382,
        "lng": -90.6296701,
        "rating": 4.9,
        "user_ratings_total": 439,
        "address": "4301 81st Ave W, Rock Island, IL 61201, USA",
        "types": [
          "establishment",
          "general_contractor",
          "point_of_interest"
        ],
        "business_status": "OPERATIONAL"
      },
      {
        "place_id": "ChIJc2IfiF7ACIgRKKyy7mbTEUI",
        "name": "Dry Otter Basement Waterproofing & Foundation Repair",
        "lat": 42.396169,
        "lng": -89.0125183,
        "rating": 4.9,
        "user_ratings_total": 261,
        "address": "5326 Stern Dr Unit B, Roscoe, IL 61073, USA",
        "types": [
          "establishment",
          "general_contractor",
          "point_of_interest"
        ],
        "business_status": "OPERATIONAL"
      },
      {
        "place_id": "ChIJ79M-3-1da4gR-OEiqBoqtpU",
        "name": "Indiana Crawl Space Repair",
        "lat": 39.4492435,
        "lng": -86.4265404,
        "rating": 4.9,
        "user_ratings_total": 209,
        "address": "1759 N, Blue Bluff Rd, Martinsville, IN 46151, USA",
        "types": [
          "establishment",
          "general_contractor",
          "point_of_interest"
        ],
        "business_status": "OPERATIONAL"
      },
      {
        "place_id": "ChIJOyk2MVYpU4gRQvQvIaZSIM0",
        "name": "Carolina Foundation Solutions, LLC",
        "lat": 36.06307,
        "lng": -79.47041999999999,
        "rating": 4.7,
        "user_ratings_total": 200,
        "address": "2771 Alamance Rd, Burlington, NC 27215, USA",
        "types": [
          "establishment",
          "general_contractor",
          "point_of_interest"
        ],
        "business_status": "OPERATIONAL"
      },
      {
        "place_id": "ChIJ3f7XnHf75IcRr3AfLM8WYaw",
        "name": "Tomlinson-Cannon",
        "lat": 42.0335332,
        "lng": -91.67804389999999,
        "rating": 5,
        "user_ratings_total": 166,
        "address": "2351 Blairs Ferry Rd NE #4, Cedar Rapids, IA 52402, USA",
        "types": [
          "establishment",
          "general_contractor",
          "point_of_interest"
        ],
        "business_status": "OPERATIONAL"
      },
      {
        "place_id": "ChIJ4RYnDm8x4ocRDtZj__NoVXo",
        "name": "ACE Waterproofing & Basement Solutions",
        "lat": 41.5286116,
        "lng": -90.48512869999999,
        "rating": 4.9,
        "user_ratings_total": 164,
        "address": "3466 State St, Bettendorf, IA 52722, USA",
        "types": [
          "establishment",
          "general_contractor",
          "point_of_interest",
          "store"
        ],
        "business_status": "OPERATIONAL"
      },
      {
        "place_id": "ChIJWwlVbCxVrlQRtNufU9bOMGE",
        "name": "Foundation and Crawl Space Repair of Idaho",
        "lat": 43.6051967,
        "lng": -116.3873217,
        "rating": 4.5,
        "user_ratings_total": 149,
        "address": "368 E Franklin Rd, Meridian, ID 83642, USA",
        "types": [
          "establishment",
          "general_contractor",
          "point_of_interest"
        ],
        "business_status": "OPERATIONAL"
      },
      {
        "place_id": "ChIJdcgDTkClB4gR0kg2efPe2TQ",
        "name": "Zander Solutions",
        "lat": 42.9834516,
        "lng": -89.5388368,
        "rating": 4.6,
        "user_ratings_total": 137,
        "address": "421 S Nine Mound Rd, Verona, WI 53593, USA",
        "types": [
          "establishment",
          "point_of_interest"
        ],
        "business_status": "OPERATIONAL"
      },
      {
        "place_id": "ChIJ6dtwWI3L2IcRi6FEQTDRL-A",
        "name": "Crawlspace Medic of St. Louis",
        "lat": 38.6092934,
        "lng": -90.33805249999999,
        "rating": 4.8,
        "user_ratings_total": 128,
        "address": "8204 Exchange Way, St. Louis, MO 63144, USA",
        "types": [
          "establishment",
          "point_of_interest"
        ],
        "business_status": "OPERATIONAL"
      },
      {
        "place_id": "ChIJPY3xwqrX5ocREHZ8miWYnO0",
        "name": "Thrasher Foundation Repair",
        "lat": 40.6467734,
        "lng": -91.2941247,
        "rating": 4.9,
        "user_ratings_total": 115,
        "address": "2140 330th Ave, Fort Madison, IA 52627, USA",
        "types": [
          "establishment",
          "general_contractor",
          "point_of_interest"
        ],
        "business_status": "OPERATIONAL"
      },
      {
        "place_id": "ChIJK4qY4Bkx4ocR7rDV21-42zE",
        "name": "Absolutely Dry Basement Waterproofing, Inc.",
        "lat": 41.4998322,
        "lng": -90.6397623,
        "rating": 4.8,
        "user_ratings_total": 64,
        "address": "1922 S Stark St, Davenport, IA 52802, USA",
        "types": [
          "establishment",
          "point_of_interest"
        ],
        "business_status": "OPERATIONAL"
      },
      {
        "place_id": "ChIJbfRjiP034ocRAKjh5D2UKIY",
        "name": "Foundation Recovery Systems",
        "lat": 41.5476292,
        "lng": -90.5215003,
        "rating": 4.8,
        "user_ratings_total": 59,
        "address": "2435 Kimberly Rd Suite 45, Bettendorf, IA 52722, USA",
        "types": [
          "establishment",
          "general_contractor",
          "point_of_interest"
        ],
        "business_status": "OPERATIONAL"
      },
      {
        "place_id": "ChIJu4k8TENLDogRqP7qwAFwyJY",
        "name": "Crawlspaces.com",
        "lat": 41.8853011,
        "lng": -87.9237321,
        "rating": 5,
        "user_ratings_total": 53,
        "address": "502 Stratford Ave, Elmhurst, IL 60126, USA",
        "types": [
          "establishment",
          "general_contractor",
          "point_of_interest"
        ],
        "business_status": "OPERATIONAL"
      },
      {
        "place_id": "ChIJTS0fi66oJIgRsouKgRluSVQ",
        "name": "CrawlSpaceRepair.com, LLC",
        "lat": 34.16157570000001,
        "lng": -82.1672158,
        "rating": 4.9,
        "user_ratings_total": 51,
        "address": "133 Joe Bernat Dr, Greenwood, SC 29646, USA",
        "types": [
          "establishment",
          "point_of_interest"
        ],
        "business_status": "OPERATIONAL"
      },
      {
        "place_id": "ChIJzWulyo735IcRAh7x42C7oOs",
        "name": "Foundation Recovery Systems",
        "lat": 41.94245,
        "lng": -91.6712572,
        "rating": 4.7,
        "user_ratings_total": 49,
        "address": "3349 Southgate Ct SW Suite 110, Cedar Rapids, IA 52404, USA",
        "types": [
          "establishment",
          "general_contractor",
          "point_of_interest"
        ],
        "business_status": "OPERATIONAL"
      }
    ]
  },
  "urbandale|ia": {
    "city": "Urbandale",
    "state": "IA",
    "lat": 41.6342,
    "lng": -93.775,
    "competitor_count": 20,
    "competitors": [
      {
        "place_id": "ChIJNfGs5m-a7ocRqpNFUDDk9jM",
        "name": "Thrasher Foundation Repair",
        "lat": 41.6282654,
        "lng": -93.75398369999999,
        "rating": 4.8,
        "user_ratings_total": 1528,
        "address": "9850 Douglas Ave Suite 100, Urbandale, IA 50322, USA",
        "types": [
          "establishment",
          "general_contractor",
          "point_of_interest"
        ],
        "business_status": "OPERATIONAL"
      },
      {
        "place_id": "ChIJo63o4eeP7ocR3L3vwapwm10",
        "name": "Foundation Recovery Systems",
        "lat": 41.7057169,
        "lng": -93.5682472,
        "rating": 4.8,
        "user_ratings_total": 541,
        "address": "2401 SE Creekview Dr, Ankeny, IA 50021, USA",
        "types": [
          "establishment",
          "general_contractor",
          "point_of_interest"
        ],
        "business_status": "OPERATIONAL"
      },
      {
        "place_id": "ChIJu8Y-LCqj7ocRscIz2-nDpqI",
        "name": "911 Restoration of Des Moines",
        "lat": 41.4941132,
        "lng": -93.48796709999999,
        "rating": 4.9,
        "user_ratings_total": 362,
        "address": "550 S 2nd St, Des Moines, IA 50047, USA",
        "types": [
          "establishment",
          "general_contractor",
          "point_of_interest"
        ],
        "business_status": "OPERATIONAL"
      },
      {
        "place_id": "ChIJQXtAFMqb7ocRwkouc4WsTMU",
        "name": "BAM Basements and Masons of Des Moines",
        "lat": 41.657052,
        "lng": -93.61928859999999,
        "rating": 5,
        "user_ratings_total": 255,
        "address": "5327 NW 2nd St, Des Moines, IA 50313, USA",
        "types": [
          "establishment",
          "general_contractor",
          "point_of_interest"
        ],
        "business_status": "OPERATIONAL"
      },
      {
        "place_id": "ChIJIx609ycN7IcRGRn1V77m-Mo",
        "name": "Anchored Walls, Inc.",
        "lat": 41.3299808,
        "lng": -94.0586113,
        "rating": 4.9,
        "user_ratings_total": 239,
        "address": "1962 IA-92, Winterset, IA 50273, USA",
        "types": [
          "establishment",
          "general_contractor",
          "point_of_interest"
        ],
        "business_status": "OPERATIONAL"
      },
      {
        "place_id": "ChIJ79M-3-1da4gR-OEiqBoqtpU",
        "name": "Indiana Crawl Space Repair",
        "lat": 39.4492435,
        "lng": -86.4265404,
        "rating": 4.9,
        "user_ratings_total": 209,
        "address": "1759 N, Blue Bluff Rd, Martinsville, IN 46151, USA",
        "types": [
          "establishment",
          "general_contractor",
          "point_of_interest"
        ],
        "business_status": "OPERATIONAL"
      },
      {
        "place_id": "ChIJpU0-0K6a7ocRu5X8Fqb5NMI",
        "name": "B.A.M! Basements and Masons",
        "lat": 41.6979329,
        "lng": -93.587176,
        "rating": 4.9,
        "user_ratings_total": 107,
        "address": "7535 NE 19th St, Ankeny, IA 50021, USA",
        "types": [
          "establishment",
          "general_contractor",
          "point_of_interest"
        ],
        "business_status": "OPERATIONAL"
      },
      {
        "place_id": "ChIJKyrFbjMT7ocRboLU7qnULhM",
        "name": "Acculevel",
        "lat": 42.1827566,
        "lng": -93.5635511,
        "rating": 4.8,
        "user_ratings_total": 104,
        "address": "1811 Rich Olive St, Story City, IA 50248, USA",
        "types": [
          "establishment",
          "general_contractor",
          "point_of_interest"
        ],
        "business_status": "OPERATIONAL"
      },
      {
        "place_id": "ChIJAZZbEus57YcRSSdm8iZ2hKw",
        "name": "WCI Basement Repair",
        "lat": 42.0699429,
        "lng": -94.8737738,
        "rating": 4.8,
        "user_ratings_total": 86,
        "address": "602 W 8th St, Carroll, IA 51401, USA",
        "types": [
          "establishment",
          "general_contractor",
          "point_of_interest"
        ],
        "business_status": "OPERATIONAL"
      },
      {
        "place_id": "ChIJWc_fPVKf7ocRutvUx8eKJlE",
        "name": "Epp Foundation Repair",
        "lat": 41.6131707,
        "lng": -93.7353426,
        "rating": 4.9,
        "user_ratings_total": 78,
        "address": "2175 NW 86th St Suite 14C, Clive, IA 50325, USA",
        "types": [
          "establishment",
          "general_contractor",
          "point_of_interest"
        ],
        "business_status": "OPERATIONAL"
      },
      {
        "place_id": "ChIJ-yrTL_uZ7ocRT2RBFSbyQDs",
        "name": "Jon's Dry Basement Foundation Repair",
        "lat": 41.53321500000001,
        "lng": -93.5955761,
        "rating": 4.7,
        "user_ratings_total": 68,
        "address": "1410 E Diehl Ave, Des Moines, IA 50320, USA",
        "types": [
          "establishment",
          "general_contractor",
          "point_of_interest"
        ],
        "business_status": "OPERATIONAL"
      },
      {
        "place_id": "ChIJyyrVGro57IcR8PSrZeNb2eM",
        "name": "All Basements and More of Adel",
        "lat": 41.6121532,
        "lng": -94.0254666,
        "rating": 5,
        "user_ratings_total": 51,
        "address": "1315 Pleasant St, Adel, IA 50003, USA",
        "types": [
          "establishment",
          "general_contractor",
          "point_of_interest"
        ],
        "business_status": "OPERATIONAL"
      },
      {
        "place_id": "ChIJi1QDvs2j7ocR8nDLj1NhjBc",
        "name": "Concrete PolyFix",
        "lat": 41.5603999,
        "lng": -93.7840751,
        "rating": 4.7,
        "user_ratings_total": 47,
        "address": "650 S Prairie View Dr #125, West Des Moines, IA 50266, USA",
        "types": [
          "establishment",
          "general_contractor",
          "point_of_interest"
        ],
        "business_status": "OPERATIONAL"
      },
      {
        "place_id": "ChIJ7eF3r0wM7IcRKGffw4HDy-A",
        "name": "Iowa Foundation Repair",
        "lat": 41.34241240000001,
        "lng": -94.0146341,
        "rating": 4.9,
        "user_ratings_total": 38,
        "address": "Winterset, IA 50273, USA",
        "types": [
          "establishment",
          "point_of_interest"
        ],
        "business_status": "OPERATIONAL"
      },
      {
        "place_id": "ChIJi6fgP5-F7ocR9vLdiPI1-NY",
        "name": "A-1 Basement Finishing",
        "lat": 41.7075031,
        "lng": -93.632685,
        "rating": 5,
        "user_ratings_total": 38,
        "address": "2123 SW Cascade Falls Dr, Ankeny, IA 50023, USA",
        "types": [
          "establishment",
          "general_contractor",
          "point_of_interest"
        ],
        "business_status": "OPERATIONAL"
      },
      {
        "place_id": "ChIJiY7QxVOZ7ocRlPf_jRtDY8Q",
        "name": "JLB Basement Waterproofing & Foundation Repair LLC",
        "lat": 41.6024852,
        "lng": -93.6180449,
        "rating": 4.6,
        "user_ratings_total": 32,
        "address": "97 Indiana Ave Suite #1, Des Moines, IA 50314, USA",
        "types": [
          "establishment",
          "general_contractor",
          "point_of_interest"
        ],
        "business_status": "OPERATIONAL"
      },
      {
        "place_id": "ChIJIeqQrcA97IcRd4_OxTJeGqM",
        "name": "JLB Basement Waterproofing & Foundation Repair LLC",
        "lat": 41.534167,
        "lng": -93.9561786,
        "rating": 4.8,
        "user_ratings_total": 31,
        "address": "325 Grand St, Van Meter, IA 50261, USA",
        "types": [
          "establishment",
          "general_contractor",
          "point_of_interest"
        ],
        "business_status": "OPERATIONAL"
      },
      {
        "place_id": "ChIJvZ4ecfBRa4gR8ZWhVAgz4ao",
        "name": "The Hawkeye State Foundation Repair Co",
        "lat": 41.6656897,
        "lng": -93.4742543,
        "rating": 4,
        "user_ratings_total": 24,
        "address": "1000 Commerce Pkwy SW, Bondurant, IA 50035, USA",
        "types": [
          "establishment",
          "general_contractor",
          "point_of_interest"
        ],
        "business_status": "OPERATIONAL"
      },
      {
        "place_id": "ChIJk4hdN9VR4W0R2jDjh6IymAY",
        "name": "Dry Duck Basement Waterproofing",
        "lat": 41.5843417,
        "lng": -93.5580038,
        "rating": 5,
        "user_ratings_total": 21,
        "address": "3000 Scott Ave, Des Moines, IA 50317, USA",
        "types": [
          "establishment",
          "point_of_interest"
        ],
        "business_status": "OPERATIONAL"
      },
      {
        "place_id": "ChIJs5UlcvTb7YcRGBUc1HKERUc",
        "name": "JLB Basement Waterproofing & Foundation Repair LLC",
        "lat": 42.0593355,
        "lng": -93.858516,
        "rating": 5,
        "user_ratings_total": 19,
        "address": "2041 Knezevich Rd, Boone, IA 50036, USA",
        "types": [
          "establishment",
          "general_contractor",
          "point_of_interest"
        ],
        "business_status": "OPERATIONAL"
      }
    ]
  },
  "waterloo|ia": {
    "city": "Waterloo",
    "state": "IA",
    "lat": 42.4739,
    "lng": -92.3114,
    "competitor_count": 20,
    "competitors": [
      {
        "place_id": "ChIJO_LLxxmzJIgRy6b-dP61Xwo",
        "name": "Foundation Systems of Michigan",
        "lat": 42.3814488,
        "lng": -83.36856720000002,
        "rating": 4.7,
        "user_ratings_total": 2568,
        "address": "32985 Schoolcraft, Livonia, MI 48150, USA",
        "types": [
          "establishment",
          "general_contractor",
          "point_of_interest"
        ],
        "business_status": "OPERATIONAL"
      },
      {
        "place_id": "ChIJNfGs5m-a7ocRqpNFUDDk9jM",
        "name": "Thrasher Foundation Repair",
        "lat": 41.6282654,
        "lng": -93.75398369999999,
        "rating": 4.8,
        "user_ratings_total": 1528,
        "address": "9850 Douglas Ave Suite 100, Urbandale, IA 50322, USA",
        "types": [
          "establishment",
          "general_contractor",
          "point_of_interest"
        ],
        "business_status": "OPERATIONAL"
      },
      {
        "place_id": "ChIJo63o4eeP7ocR3L3vwapwm10",
        "name": "Foundation Recovery Systems",
        "lat": 41.7057169,
        "lng": -93.5682472,
        "rating": 4.8,
        "user_ratings_total": 541,
        "address": "2401 SE Creekview Dr, Ankeny, IA 50021, USA",
        "types": [
          "establishment",
          "general_contractor",
          "point_of_interest"
        ],
        "business_status": "OPERATIONAL"
      },
      {
        "place_id": "ChIJQXtAFMqb7ocRwkouc4WsTMU",
        "name": "BAM Basements and Masons of Des Moines",
        "lat": 41.657052,
        "lng": -93.61928859999999,
        "rating": 5,
        "user_ratings_total": 255,
        "address": "5327 NW 2nd St, Des Moines, IA 50313, USA",
        "types": [
          "establishment",
          "general_contractor",
          "point_of_interest"
        ],
        "business_status": "OPERATIONAL"
      },
      {
        "place_id": "ChIJ79M-3-1da4gR-OEiqBoqtpU",
        "name": "Indiana Crawl Space Repair",
        "lat": 39.4492435,
        "lng": -86.4265404,
        "rating": 4.9,
        "user_ratings_total": 209,
        "address": "1759 N, Blue Bluff Rd, Martinsville, IN 46151, USA",
        "types": [
          "establishment",
          "general_contractor",
          "point_of_interest"
        ],
        "business_status": "OPERATIONAL"
      },
      {
        "place_id": "ChIJOyk2MVYpU4gRQvQvIaZSIM0",
        "name": "Carolina Foundation Solutions, LLC",
        "lat": 36.06307,
        "lng": -79.47041999999999,
        "rating": 4.7,
        "user_ratings_total": 200,
        "address": "2771 Alamance Rd, Burlington, NC 27215, USA",
        "types": [
          "establishment",
          "general_contractor",
          "point_of_interest"
        ],
        "business_status": "OPERATIONAL"
      },
      {
        "place_id": "ChIJ3f7XnHf75IcRr3AfLM8WYaw",
        "name": "Tomlinson-Cannon",
        "lat": 42.0335332,
        "lng": -91.67804389999999,
        "rating": 5,
        "user_ratings_total": 166,
        "address": "2351 Blairs Ferry Rd NE #4, Cedar Rapids, IA 52402, USA",
        "types": [
          "establishment",
          "general_contractor",
          "point_of_interest"
        ],
        "business_status": "OPERATIONAL"
      },
      {
        "place_id": "ChIJKyrFbjMT7ocRboLU7qnULhM",
        "name": "Acculevel",
        "lat": 42.1827566,
        "lng": -93.5635511,
        "rating": 4.8,
        "user_ratings_total": 104,
        "address": "1811 Rich Olive St, Story City, IA 50248, USA",
        "types": [
          "establishment",
          "general_contractor",
          "point_of_interest"
        ],
        "business_status": "OPERATIONAL"
      },
      {
        "place_id": "ChIJWc_fPVKf7ocRutvUx8eKJlE",
        "name": "Epp Foundation Repair",
        "lat": 41.6131707,
        "lng": -93.7353426,
        "rating": 4.9,
        "user_ratings_total": 78,
        "address": "2175 NW 86th St Suite 14C, Clive, IA 50325, USA",
        "types": [
          "establishment",
          "general_contractor",
          "point_of_interest"
        ],
        "business_status": "OPERATIONAL"
      },
      {
        "place_id": "ChIJ44Kpjc0YIwwRid4NH_FUi6I",
        "name": "True North Restoration of Iowa",
        "lat": 42.4814108,
        "lng": -92.44809219999999,
        "rating": 4.9,
        "user_ratings_total": 76,
        "address": "6227 Nordic Dr, Cedar Falls, IA 50613, USA",
        "types": [
          "establishment",
          "general_contractor",
          "laundry",
          "point_of_interest"
        ],
        "business_status": "OPERATIONAL"
      },
      {
        "place_id": "ChIJ-yrTL_uZ7ocRT2RBFSbyQDs",
        "name": "Jon's Dry Basement Foundation Repair",
        "lat": 41.53321500000001,
        "lng": -93.5955761,
        "rating": 4.7,
        "user_ratings_total": 68,
        "address": "1410 E Diehl Ave, Des Moines, IA 50320, USA",
        "types": [
          "establishment",
          "general_contractor",
          "point_of_interest"
        ],
        "business_status": "OPERATIONAL"
      },
      {
        "place_id": "ChIJVwCH6jRV5YcRQk0IINWrDdY",
        "name": "Iowa Flatworks",
        "lat": 42.5465607,
        "lng": -92.4504097,
        "rating": 5,
        "user_ratings_total": 64,
        "address": "1025 Center St, Cedar Falls, IA 50613, USA",
        "types": [
          "establishment",
          "general_contractor",
          "point_of_interest"
        ],
        "business_status": "OPERATIONAL"
      },
      {
        "place_id": "ChIJK4qY4Bkx4ocR7rDV21-42zE",
        "name": "Absolutely Dry Basement Waterproofing, Inc.",
        "lat": 41.4998322,
        "lng": -90.6397623,
        "rating": 4.8,
        "user_ratings_total": 64,
        "address": "1922 S Stark St, Davenport, IA 52802, USA",
        "types": [
          "establishment",
          "point_of_interest"
        ],
        "business_status": "OPERATIONAL"
      },
      {
        "place_id": "ChIJu4k8TENLDogRqP7qwAFwyJY",
        "name": "Crawlspaces.com",
        "lat": 41.8853011,
        "lng": -87.9237321,
        "rating": 5,
        "user_ratings_total": 53,
        "address": "502 Stratford Ave, Elmhurst, IL 60126, USA",
        "types": [
          "establishment",
          "general_contractor",
          "point_of_interest"
        ],
        "business_status": "OPERATIONAL"
      },
      {
        "place_id": "ChIJzWulyo735IcRAh7x42C7oOs",
        "name": "Foundation Recovery Systems",
        "lat": 41.94245,
        "lng": -91.6712572,
        "rating": 4.7,
        "user_ratings_total": 49,
        "address": "3349 Southgate Ct SW Suite 110, Cedar Rapids, IA 52404, USA",
        "types": [
          "establishment",
          "general_contractor",
          "point_of_interest"
        ],
        "business_status": "OPERATIONAL"
      },
      {
        "place_id": "ChIJaQQ3zeIv8IcRy7BfJQXK0mI",
        "name": "DeFord Spray Foam & Concrete Lifting",
        "lat": 42.45584909999999,
        "lng": -92.3591058,
        "rating": 5,
        "user_ratings_total": 49,
        "address": "131 Tower Park Dr Suite 323, Waterloo, IA 50701, USA",
        "types": [
          "establishment",
          "general_contractor",
          "point_of_interest"
        ],
        "business_status": "OPERATIONAL"
      },
      {
        "place_id": "ChIJ7eF3r0wM7IcRKGffw4HDy-A",
        "name": "Iowa Foundation Repair",
        "lat": 41.34241240000001,
        "lng": -94.0146341,
        "rating": 4.9,
        "user_ratings_total": 38,
        "address": "Winterset, IA 50273, USA",
        "types": [
          "establishment",
          "point_of_interest"
        ],
        "business_status": "OPERATIONAL"
      },
      {
        "place_id": "ChIJRcsSDle59y4RnOfuta77sgw",
        "name": "Bigbee Construction",
        "lat": 42.0317089,
        "lng": -91.6144807,
        "rating": 4.9,
        "user_ratings_total": 36,
        "address": "745 Blairs Ferry Rd NE, Marion, IA 52302, USA",
        "types": [
          "establishment",
          "general_contractor",
          "point_of_interest"
        ],
        "business_status": "OPERATIONAL"
      },
      {
        "place_id": "ChIJ7cKMFZHz5IcRlA6U2NuXeoY",
        "name": "Domer Concrete Solutions",
        "lat": 42.0489262,
        "lng": -91.5931298,
        "rating": 4.8,
        "user_ratings_total": 35,
        "address": "2660 Indian Creek Rd, Marion, IA 52302, USA",
        "types": [
          "establishment",
          "general_contractor",
          "point_of_interest"
        ],
        "business_status": "OPERATIONAL"
      },
      {
        "place_id": "ChIJiY7QxVOZ7ocRlPf_jRtDY8Q",
        "name": "JLB Basement Waterproofing & Foundation Repair LLC",
        "lat": 41.6024852,
        "lng": -93.6180449,
        "rating": 4.6,
        "user_ratings_total": 32,
        "address": "97 Indiana Ave Suite #1, Des Moines, IA 50314, USA",
        "types": [
          "establishment",
          "general_contractor",
          "point_of_interest"
        ],
        "business_status": "OPERATIONAL"
      }
    ]
  },
  "birmingham|al": {
    "city": "Birmingham",
    "state": "AL",
    "lat": 33.5052,
    "lng": -86.8003,
    "competitor_count": 20,
    "competitors": [
      {
        "place_id": "ChIJaXURIcBtiYgRDX7igitE1u8",
        "name": "AFS Foundation & Waterproofing Specialists",
        "lat": 33.2045496,
        "lng": -86.78770399999999,
        "rating": 4.9,
        "user_ratings_total": 2468,
        "address": "130 Interstate Commerce Dr Bldg. 100, Alabaster, AL 35007, USA",
        "types": [
          "establishment",
          "general_contractor",
          "point_of_interest"
        ],
        "business_status": "OPERATIONAL"
      },
      {
        "place_id": "ChIJfa4aWd-BYogRoeTYIQ6xHZw",
        "name": "Affordable Foundation & Home Repairs - The Crack Guys",
        "lat": 34.4476678,
        "lng": -86.86583,
        "rating": 4.9,
        "user_ratings_total": 1038,
        "address": "945 AL-36, Hartselle, AL 35640, USA",
        "types": [
          "establishment",
          "point_of_interest"
        ],
        "business_status": "OPERATIONAL"
      },
      {
        "place_id": "ChIJZ7kPtOwtiYgRY4eWulSk8og",
        "name": "Ox Foundation Solutions",
        "lat": 33.2722488,
        "lng": -86.7854472,
        "rating": 4.9,
        "user_ratings_total": 756,
        "address": "2800 Co Rd 11, Pelham, AL 35124, USA",
        "types": [
          "establishment",
          "general_contractor",
          "point_of_interest"
        ],
        "business_status": "OPERATIONAL"
      },
      {
        "place_id": "ChIJLyUzlOEeiYgR7nReM2hSXLM",
        "name": "BDry Waterproofing & Foundation Repair",
        "lat": 33.423444,
        "lng": -86.884096,
        "rating": 4.9,
        "user_ratings_total": 538,
        "address": "1490 Valley Dr, Bessemer, AL 35022, USA",
        "types": [
          "establishment",
          "point_of_interest"
        ],
        "business_status": "OPERATIONAL"
      },
      {
        "place_id": "ChIJs7W2RLoRiYgRzi5E410YJzs",
        "name": "APS Foundation Repair and Waterproofing",
        "lat": 33.5462059,
        "lng": -86.69267,
        "rating": 4.9,
        "user_ratings_total": 475,
        "address": "2616 Commerce Cir, Irondale, AL 35210, USA",
        "types": [
          "establishment",
          "general_contractor",
          "point_of_interest"
        ],
        "business_status": "OPERATIONAL"
      },
      {
        "place_id": "ChIJSxXE1nt9iYgR73cuQm_94AI",
        "name": "SouthernDry Waterproofing & Foundation Repair Specialist",
        "lat": 33.6002006,
        "lng": -86.26319529999999,
        "rating": 4.9,
        "user_ratings_total": 455,
        "address": "213 Mds Dr Suite 100, Pell City, AL 35125, USA",
        "types": [
          "establishment",
          "general_contractor",
          "point_of_interest"
        ],
        "business_status": "OPERATIONAL"
      },
      {
        "place_id": "ChIJawUwfTobiYgR4RIpA16nXhY",
        "name": "Pure Air of Alabama",
        "lat": 33.5136802,
        "lng": -86.79690029999999,
        "rating": 4.9,
        "user_ratings_total": 247,
        "address": "2415 2nd Ave S, Birmingham, AL 35233, USA",
        "types": [
          "establishment",
          "general_contractor",
          "point_of_interest"
        ],
        "business_status": "OPERATIONAL"
      },
      {
        "place_id": "ChIJb1lf_RgfiYgRz24oHloiCrg",
        "name": "Crawlspace Medic of Birmingham",
        "lat": 33.4475263,
        "lng": -86.844099,
        "rating": 5,
        "user_ratings_total": 191,
        "address": "163 Citation Ct, Homewood, AL 35209, USA",
        "types": [
          "establishment",
          "general_contractor",
          "point_of_interest"
        ],
        "business_status": "OPERATIONAL"
      },
      {
        "place_id": "ChIJ6ZeC7AociYgRArDQBgFWx2w",
        "name": "Southern Home Structural Specialist",
        "lat": 33.508284,
        "lng": -86.823464,
        "rating": 4.9,
        "user_ratings_total": 181,
        "address": "731 3rd Ave N, Birmingham, AL 35203, USA",
        "types": [
          "establishment",
          "point_of_interest"
        ],
        "business_status": "OPERATIONAL"
      },
      {
        "place_id": "ChIJqYWloEoTYogR0G7LuhHSBHE",
        "name": "Frontier Foundation & Crawl Space Repair",
        "lat": 34.669611,
        "lng": -86.57628369999999,
        "rating": 5,
        "user_ratings_total": 152,
        "address": "600 Boulevard S SW Suite 104, Huntsville, AL 35802, USA",
        "types": [
          "establishment",
          "general_contractor",
          "point_of_interest"
        ],
        "business_status": "OPERATIONAL"
      },
      {
        "place_id": "ChIJ-XsydroNiYgRZcc8QrmqbnY",
        "name": "GAE Concrete Co.",
        "lat": 33.5972263,
        "lng": -86.6420184,
        "rating": 4.9,
        "user_ratings_total": 106,
        "address": "3235 Veterans Cir #315, Birmingham, AL 35235, USA",
        "types": [
          "establishment",
          "general_contractor",
          "point_of_interest"
        ],
        "business_status": "OPERATIONAL"
      },
      {
        "place_id": "ChIJzf9a6os6uIMRpirHRl1_Uvs",
        "name": "Queen Foundation repair",
        "lat": 33.5142509,
        "lng": -86.8078326,
        "rating": 4.8,
        "user_ratings_total": 64,
        "address": "120 19th St N, Birmingham, AL 35203, USA",
        "types": [
          "establishment",
          "general_contractor",
          "point_of_interest"
        ],
        "business_status": "OPERATIONAL"
      },
      {
        "place_id": "ChIJ-zwBv8XIiIgRfPqDgPckLns",
        "name": "Stay Dry Waterproofing LLC",
        "lat": 33.2603088,
        "lng": -87.07856269999999,
        "rating": 5,
        "user_ratings_total": 60,
        "address": "12500 Bedford Forrest Lane, McCalla, AL 35111, USA",
        "types": [
          "establishment",
          "general_contractor",
          "point_of_interest"
        ],
        "business_status": "OPERATIONAL"
      },
      {
        "place_id": "ChIJ6_VYo18MiYgRpJHNLBPQ05c",
        "name": "H2O Waterproofing",
        "lat": 33.6106792,
        "lng": -86.75351409999999,
        "rating": 4.8,
        "user_ratings_total": 46,
        "address": "3684 Industrial Pkwy, Birmingham, AL 35217, USA",
        "types": [
          "establishment",
          "general_contractor",
          "point_of_interest"
        ],
        "business_status": "OPERATIONAL"
      },
      {
        "place_id": "ChIJKRrbKFgYiYgRHV6kE0QImZk",
        "name": "Aqua-Guard Waterproofing",
        "lat": 33.2480986,
        "lng": -86.81488069999999,
        "rating": 4.7,
        "user_ratings_total": 44,
        "address": "125 5th Ave NE, Alabaster, AL 35007, USA",
        "types": [
          "establishment",
          "point_of_interest"
        ],
        "business_status": "OPERATIONAL"
      },
      {
        "place_id": "ChIJi7fF7zYdNqwRxGyXwK_cO8k",
        "name": "Mr. Hernandez Crawlspace crawlspace repair &waterproofing",
        "lat": 34.5883485,
        "lng": -87.0679899,
        "rating": 5,
        "user_ratings_total": 36,
        "address": "3438 Gordon Terry Pkwy #44, Trinity, AL 35673, USA",
        "types": [
          "establishment",
          "general_contractor",
          "point_of_interest"
        ],
        "business_status": "OPERATIONAL"
      },